[
  {
    "ident": "18AA",
    "type": "small_airport",
    "name": "18 Meadows Aerodrome",
    "elev": 89,
    "lon": -135.72322,
    "lat": 59.313222,
    "isoregion": "US-AK",
    "country": "Alaska"
  },
  {
    "ident": "AK10",
    "type": "small_airport",
    "name": "AK-10 Airstrip",
    "elev": 210,
    "lon": -150.108992,
    "lat": 61.71721,
    "isoregion": "US-AK",
    "country": "Alaska"
  },
  {
    "ident": "AK46",
    "type": "small_airport",
    "name": "Abi Airport",
    "elev": 750,
    "lon": -149.04299926757812,
    "lat": 61.62879943847656,
    "isoregion": "US-AK",
    "country": "Alaska"
  },
  {
    "ident": "PADK",
    "type": "medium_airport",
    "name": "Adak Airport",
    "elev": 18,
    "lon": -176.642783,
    "lat": 51.883564,
    "isoregion": "US-AK",
    "country": "Alaska"
  },
  {
    "ident": "9AA9",
    "type": "small_airport",
    "name": "Airkat Airpark",
    "elev": 260,
    "lon": -136.019443,
    "lat": 59.403055,
    "isoregion": "US-AK",
    "country": "Alaska"
  },
  {
    "ident": "5AK3",
    "type": "small_airport",
    "name": "Airway Airport",
    "elev": 480,
    "lon": -147.333999634,
    "lat": 64.7732009888,
    "isoregion": "US-AK",
    "country": "Alaska"
  },
  {
    "ident": "PAKH",
    "type": "small_airport",
    "name": "Akhiok Airport",
    "elev": 44,
    "lon": -154.182998657,
    "lat": 56.9387016296,
    "isoregion": "US-AK",
    "country": "Alaska"
  },
  {
    "ident": "Z13",
    "type": "small_airport",
    "name": "Akiachak Airport",
    "elev": 23,
    "lon": -161.42199707031,
    "lat": 60.904800415039,
    "isoregion": "US-AK",
    "country": "Alaska"
  },
  {
    "ident": "KKI",
    "type": "seaplane_base",
    "name": "Akiachak Seaplane Base",
    "elev": 0,
    "lon": -161.434997559,
    "lat": 60.9079017639,
    "isoregion": "US-AK",
    "country": "Alaska"
  },
  {
    "ident": "PFAK",
    "type": "small_airport",
    "name": "Akiak Airport",
    "elev": 30,
    "lon": -161.231002808,
    "lat": 60.9029006958,
    "isoregion": "US-AK",
    "country": "Alaska"
  },
  {
    "ident": "PAUT",
    "type": "small_airport",
    "name": "Akutan Airport",
    "elev": 133,
    "lon": -165.604332,
    "lat": 54.14459,
    "isoregion": "US-AK",
    "country": "Alaska"
  },
  {
    "ident": "KQA",
    "type": "seaplane_base",
    "name": "Akutan Seaplane Base",
    "elev": null,
    "lon": -165.778896,
    "lat": 54.13377,
    "isoregion": "US-AK",
    "country": "Alaska"
  },
  {
    "ident": "PAUK",
    "type": "small_airport",
    "name": "Alakanuk Airport",
    "elev": 10,
    "lon": -164.659927368,
    "lat": 62.680042266799994,
    "isoregion": "US-AK",
    "country": "Alaska"
  },
  {
    "ident": "AK01",
    "type": "small_airport",
    "name": "Alaska Airpark",
    "elev": 320,
    "lon": -150.625133,
    "lat": 60.528983,
    "isoregion": "US-AK",
    "country": "Alaska"
  },
  {
    "ident": "US-2864",
    "type": "small_airport",
    "name": "Alaska Natural Gas Pipeline Airport",
    "elev": null,
    "lon": -150.62684,
    "lat": 60.54353,
    "isoregion": "US-AK",
    "country": "Alaska"
  },
  {
    "ident": "US-2876",
    "type": "small_airport",
    "name": "Alaska West Airport",
    "elev": null,
    "lon": -151.303883,
    "lat": 60.635785,
    "isoregion": "US-AK",
    "country": "Alaska"
  },
  {
    "ident": "5A8",
    "type": "medium_airport",
    "name": "Aleknagik / New Airport",
    "elev": 66,
    "lon": -158.617996216,
    "lat": 59.2826004028,
    "isoregion": "US-AK",
    "country": "Alaska"
  },
  {
    "ident": "4AK7",
    "type": "small_airport",
    "name": "Aleknagik Mission Lodge Airport",
    "elev": 150,
    "lon": -158.597000122,
    "lat": 59.28089904789999,
    "isoregion": "US-AK",
    "country": "Alaska"
  },
  {
    "ident": "Z33",
    "type": "seaplane_base",
    "name": "Aleknagik Seaplane Base",
    "elev": 7,
    "lon": -158.62399291992188,
    "lat": 59.27399826049805,
    "isoregion": "US-AK",
    "country": "Alaska"
  },
  {
    "ident": "ALZ",
    "type": "seaplane_base",
    "name": "Alitak Seaplane Base",
    "elev": null,
    "lon": -154.248001099,
    "lat": 56.8995018005,
    "isoregion": "US-AK",
    "country": "Alaska"
  },
  {
    "ident": "AK77",
    "type": "small_airport",
    "name": "All West Airport",
    "elev": 1275,
    "lon": -145.424109,
    "lat": 63.946809,
    "isoregion": "US-AK",
    "country": "Alaska"
  },
  {
    "ident": "PFAL",
    "type": "small_airport",
    "name": "Allakaket Airport",
    "elev": 441,
    "lon": -152.621994019,
    "lat": 66.5518035889,
    "isoregion": "US-AK",
    "country": "Alaska"
  },
  {
    "ident": "PABI",
    "type": "medium_airport",
    "name": "Allen Army Airfield",
    "elev": 1291,
    "lon": -145.722000122,
    "lat": 63.9944992065,
    "isoregion": "US-AK",
    "country": "Alaska"
  },
  {
    "ident": "PALP",
    "type": "small_airport",
    "name": "Alpine Airstrip",
    "elev": 18,
    "lon": -150.945007,
    "lat": 70.344299,
    "isoregion": "US-AK",
    "country": "Alaska"
  },
  {
    "ident": "A57",
    "type": "small_airport",
    "name": "Alsek River Airport",
    "elev": 30,
    "lon": -138.447293043,
    "lat": 59.1991802403,
    "isoregion": "US-AK",
    "country": "Alaska"
  },
  {
    "ident": "PAFM",
    "type": "medium_airport",
    "name": "Ambler Airport",
    "elev": 334,
    "lon": -157.854308,
    "lat": 67.107043,
    "isoregion": "US-AK",
    "country": "Alaska"
  },
  {
    "ident": "AK80",
    "type": "small_airport",
    "name": "American Creek Airport",
    "elev": 520,
    "lon": -151.176,
    "lat": 65.1046,
    "isoregion": "US-AK",
    "country": "Alaska"
  },
  {
    "ident": "AK81",
    "type": "seaplane_base",
    "name": "Amook Bay Seaplane Base",
    "elev": null,
    "lon": -153.815002441,
    "lat": 57.4715003967,
    "isoregion": "US-AK",
    "country": "Alaska"
  },
  {
    "ident": "PAKP",
    "type": "medium_airport",
    "name": "Anaktuvuk Pass Airport",
    "elev": 2102,
    "lon": -151.7429962,
    "lat": 68.13359833,
    "isoregion": "US-AK",
    "country": "Alaska"
  },
  {
    "ident": "AK00",
    "type": "small_airport",
    "name": "Anchor River Airpark",
    "elev": 120,
    "lon": -151.853156,
    "lat": 59.783144,
    "isoregion": "US-AK",
    "country": "Alaska"
  },
  {
    "ident": "0AK1",
    "type": "small_airport",
    "name": "Anderson Lake Airport",
    "elev": 463,
    "lon": -149.32200622558594,
    "lat": 61.61690139770508,
    "isoregion": "US-AK",
    "country": "Alaska"
  },
  {
    "ident": "PAGN",
    "type": "seaplane_base",
    "name": "Angoon Seaplane Base",
    "elev": null,
    "lon": -134.56722,
    "lat": 57.497097,
    "isoregion": "US-AK",
    "country": "Alaska"
  },
  {
    "ident": "PANI",
    "type": "medium_airport",
    "name": "Aniak Airport",
    "elev": 88,
    "lon": -159.54299926757812,
    "lat": 61.581600189208984,
    "isoregion": "US-AK",
    "country": "Alaska"
  },
  {
    "ident": "PANT",
    "type": "medium_airport",
    "name": "Annette Island Airport",
    "elev": 119,
    "lon": -131.572695,
    "lat": 55.037026,
    "isoregion": "US-AK",
    "country": "Alaska"
  },
  {
    "ident": "PANV",
    "type": "medium_airport",
    "name": "Anvik Airport",
    "elev": 291,
    "lon": -160.190994,
    "lat": 62.646702,
    "isoregion": "US-AK",
    "country": "Alaska"
  },
  {
    "ident": "K40",
    "type": "seaplane_base",
    "name": "Anvik Seaplane Base",
    "elev": 52,
    "lon": -160.2050018310547,
    "lat": 62.65620040893555,
    "isoregion": "US-AK",
    "country": "Alaska"
  },
  {
    "ident": "9AK4",
    "type": "small_airport",
    "name": "Arctic Angel Airport",
    "elev": 1009,
    "lon": -145.8300018310547,
    "lat": 64.13739776611328,
    "isoregion": "US-AK",
    "country": "Alaska"
  },
  {
    "ident": "PARC",
    "type": "medium_airport",
    "name": "Arctic Village Airport",
    "elev": 2092,
    "lon": -145.578995,
    "lat": 68.1147,
    "isoregion": "US-AK",
    "country": "Alaska"
  },
  {
    "ident": "6Z1",
    "type": "small_airport",
    "name": "Arness Lake Airport",
    "elev": 125,
    "lon": -151.304376,
    "lat": 60.645473,
    "isoregion": "US-AK",
    "country": "Alaska"
  },
  {
    "ident": "7AK0",
    "type": "small_airport",
    "name": "Art Z Airport",
    "elev": 193,
    "lon": -151.80999755859375,
    "lat": 64.64739990234375,
    "isoregion": "US-AK",
    "country": "Alaska"
  },
  {
    "ident": "PAAK",
    "type": "small_airport",
    "name": "Atka Airport",
    "elev": 57,
    "lon": -174.2059937,
    "lat": 52.22029877,
    "isoregion": "US-AK",
    "country": "Alaska"
  },
  {
    "ident": "US-2865",
    "type": "small_airport",
    "name": "Atkins Road Airport",
    "elev": null,
    "lon": -150.62299,
    "lat": 60.53895,
    "isoregion": "US-AK",
    "country": "Alaska"
  },
  {
    "ident": "4A2",
    "type": "small_airport",
    "name": "Atmautluak Airport",
    "elev": 17,
    "lon": -162.272996,
    "lat": 60.866699,
    "isoregion": "US-AK",
    "country": "Alaska"
  },
  {
    "ident": "PATQ",
    "type": "medium_airport",
    "name": "Atqasuk Edward Burnell Sr Memorial Airport",
    "elev": 96,
    "lon": -157.436013,
    "lat": 70.46704,
    "isoregion": "US-AK",
    "country": "Alaska"
  },
  {
    "ident": "3AK6",
    "type": "small_airport",
    "name": "B & B Boys Ranch Airport",
    "elev": 300,
    "lon": -149.268939,
    "lat": 61.592949,
    "isoregion": "US-AK",
    "country": "Alaska"
  },
  {
    "ident": "PABP",
    "type": "small_airport",
    "name": "Badami Airport",
    "elev": 26,
    "lon": -147.02999877929688,
    "lat": 70.13749694824219,
    "isoregion": "US-AK",
    "country": "Alaska"
  },
  {
    "ident": "70AK",
    "type": "small_airport",
    "name": "Bangerter Field",
    "elev": 250,
    "lon": -150.955582,
    "lat": 60.51749,
    "isoregion": "US-AK",
    "country": "Alaska"
  },
  {
    "ident": "BNF",
    "type": "seaplane_base",
    "name": "Baranof Warm Springs Float and Seaplane Base",
    "elev": 0,
    "lon": -134.833146,
    "lat": 57.088799,
    "isoregion": "US-AK",
    "country": "Alaska"
  },
  {
    "ident": "02AA",
    "type": "small_airport",
    "name": "Barefoot Airport",
    "elev": 160,
    "lon": -149.912825,
    "lat": 61.506147,
    "isoregion": "US-AK",
    "country": "Alaska"
  },
  {
    "ident": "PABA",
    "type": "medium_airport",
    "name": "Barter Island Long Range Radar Station Airport",
    "elev": 2,
    "lon": -143.582001,
    "lat": 70.134003,
    "isoregion": "US-AK",
    "country": "Alaska"
  },
  {
    "ident": "BQV",
    "type": "seaplane_base",
    "name": "Bartlett Cove Seaplane Base",
    "elev": 0,
    "lon": -135.884994507,
    "lat": 58.4552001953,
    "isoregion": "US-AK",
    "country": "Alaska"
  },
  {
    "ident": "AK96",
    "type": "small_airport",
    "name": "Bartletts Airport",
    "elev": 50,
    "lon": -157.366397,
    "lat": 58.235664,
    "isoregion": "US-AK",
    "country": "Alaska"
  },
  {
    "ident": "46AK",
    "type": "small_airport",
    "name": "Bear Cove Farm Airport",
    "elev": 115,
    "lon": -151.022186,
    "lat": 59.737844,
    "isoregion": "US-AK",
    "country": "Alaska"
  },
  {
    "ident": "AK02",
    "type": "small_airport",
    "name": "Bear Creek 1 Airport",
    "elev": 575,
    "lon": -161.06199645996094,
    "lat": 65.53990173339844,
    "isoregion": "US-AK",
    "country": "Alaska"
  },
  {
    "ident": "Z48",
    "type": "small_airport",
    "name": "Bear Creek 3 Airport",
    "elev": 740,
    "lon": -156.149454117,
    "lat": 63.5733160384,
    "isoregion": "US-AK",
    "country": "Alaska"
  },
  {
    "ident": "PAWB",
    "type": "small_airport",
    "name": "Beaver Airport",
    "elev": 359,
    "lon": -147.406997681,
    "lat": 66.362197876,
    "isoregion": "US-AK",
    "country": "Alaska"
  },
  {
    "ident": "D71",
    "type": "seaplane_base",
    "name": "Beaver Lake Seaplane Base",
    "elev": 150,
    "lon": -149.83099365234375,
    "lat": 61.58290100097656,
    "isoregion": "US-AK",
    "country": "Alaska"
  },
  {
    "ident": "56AK",
    "type": "small_airport",
    "name": "Bechtol Field",
    "elev": 300,
    "lon": -149.6060028076172,
    "lat": 61.57500076293945,
    "isoregion": "US-AK",
    "country": "Alaska"
  },
  {
    "ident": "KBE",
    "type": "seaplane_base",
    "name": "Bell Island Hot Springs Seaplane Base",
    "elev": null,
    "lon": -131.572006226,
    "lat": 55.9291000366,
    "isoregion": "US-AK",
    "country": "Alaska"
  },
  {
    "ident": "PABG",
    "type": "small_airport",
    "name": "Beluga Airport",
    "elev": 130,
    "lon": -151.044006348,
    "lat": 61.1721992493,
    "isoregion": "US-AK",
    "country": "Alaska"
  },
  {
    "ident": "US-2899",
    "type": "small_airport",
    "name": "Beluga River Airport",
    "elev": null,
    "lon": -150.981996,
    "lat": 61.21832,
    "isoregion": "US-AK",
    "country": "Alaska"
  },
  {
    "ident": "US-3521",
    "type": "small_airport",
    "name": "Bentalit Lodge Airstrip",
    "elev": 164,
    "lon": -150.98602,
    "lat": 61.934382,
    "isoregion": "US-AK",
    "country": "Alaska"
  },
  {
    "ident": "PABE",
    "type": "medium_airport",
    "name": "Bethel Airport",
    "elev": 126,
    "lon": -161.8379974,
    "lat": 60.77980042,
    "isoregion": "US-AK",
    "country": "Alaska"
  },
  {
    "ident": "Z59",
    "type": "seaplane_base",
    "name": "Bethel Seaplane Base",
    "elev": 15,
    "lon": -161.742996216,
    "lat": 60.782001495399996,
    "isoregion": "US-AK",
    "country": "Alaska"
  },
  {
    "ident": "PABT",
    "type": "medium_airport",
    "name": "Bettles Airport",
    "elev": 647,
    "lon": -151.529007,
    "lat": 66.91390228,
    "isoregion": "US-AK",
    "country": "Alaska"
  },
  {
    "ident": "PAGQ",
    "type": "small_airport",
    "name": "Big Lake Airport",
    "elev": 158,
    "lon": -149.813995361,
    "lat": 61.536098480199996,
    "isoregion": "US-AK",
    "country": "Alaska"
  },
  {
    "ident": "PABM",
    "type": "small_airport",
    "name": "Big Mountain Airport",
    "elev": 663,
    "lon": -155.260148,
    "lat": 59.362274,
    "isoregion": "US-AK",
    "country": "Alaska"
  },
  {
    "ident": "Z91",
    "type": "small_airport",
    "name": "Birch Creek Airport",
    "elev": 450,
    "lon": -145.824005127,
    "lat": 66.2740020752,
    "isoregion": "US-AK",
    "country": "Alaska"
  },
  {
    "ident": "51AK",
    "type": "small_airport",
    "name": "Birch Creek Landing",
    "elev": 400,
    "lon": -150.063849,
    "lat": 62.23883,
    "isoregion": "US-AK",
    "country": "Alaska"
  },
  {
    "ident": "AK85",
    "type": "small_airport",
    "name": "Birchwater Airport",
    "elev": 110,
    "lon": -149.763986,
    "lat": 61.482333,
    "isoregion": "US-AK",
    "country": "Alaska"
  },
  {
    "ident": "PABV",
    "type": "medium_airport",
    "name": "Birchwood Airport",
    "elev": 83,
    "lon": -149.5070038,
    "lat": 61.41650009,
    "isoregion": "US-AK",
    "country": "Alaska"
  },
  {
    "ident": "US-2858",
    "type": "small_airport",
    "name": "Birdie Haven Airport",
    "elev": null,
    "lon": -150.6433,
    "lat": 60.51053,
    "isoregion": "US-AK",
    "country": "Alaska"
  },
  {
    "ident": "5BK",
    "type": "small_airport",
    "name": "Black Rapids Airport",
    "elev": 2125,
    "lon": -145.86099243164062,
    "lat": 63.535099029541016,
    "isoregion": "US-AK",
    "country": "Alaska"
  },
  {
    "ident": "AK89",
    "type": "small_airport",
    "name": "Black Spruce Airport",
    "elev": 350,
    "lon": -149.83700561523438,
    "lat": 61.65700149536133,
    "isoregion": "US-AK",
    "country": "Alaska"
  },
  {
    "ident": "2AK1",
    "type": "small_airport",
    "name": "Blair Lake Airport",
    "elev": 910,
    "lon": -147.364855,
    "lat": 64.363443,
    "isoregion": "US-AK",
    "country": "Alaska"
  },
  {
    "ident": "Z87",
    "type": "seaplane_base",
    "name": "Blinn Lake Seaplane Base",
    "elev": 50,
    "lon": -162.7530059814453,
    "lat": 55.2515983581543,
    "isoregion": "US-AK",
    "country": "Alaska"
  },
  {
    "ident": "D75",
    "type": "seaplane_base",
    "name": "Blodget Lake Seaplane Base",
    "elev": 242,
    "lon": -149.675994873,
    "lat": 61.5760993958,
    "isoregion": "US-AK",
    "country": "Alaska"
  },
  {
    "ident": "US-3342",
    "type": "small_airport",
    "name": "Blue Mountain Lodge Airstrip",
    "elev": 171,
    "lon": -157.08532,
    "lat": 57.85424,
    "isoregion": "US-AK",
    "country": "Alaska"
  },
  {
    "ident": "71AK",
    "type": "small_airport",
    "name": "Bluff Park Farm Airport",
    "elev": 110,
    "lon": -149.496474,
    "lat": 61.527752,
    "isoregion": "US-AK",
    "country": "Alaska"
  },
  {
    "ident": "PAIK",
    "type": "medium_airport",
    "name": "Bob Baker Memorial Airport",
    "elev": 166,
    "lon": -160.43699646,
    "lat": 66.9759979248,
    "isoregion": "US-AK",
    "country": "Alaska"
  },
  {
    "ident": "3AK8",
    "type": "small_airport",
    "name": "Boisselle's Strip",
    "elev": 400,
    "lon": -149.39199829101562,
    "lat": 61.662498474121094,
    "isoregion": "US-AK",
    "country": "Alaska"
  },
  {
    "ident": "A13",
    "type": "small_airport",
    "name": "Bold Airport",
    "elev": 900,
    "lon": -148.99899291992188,
    "lat": 61.34130096435547,
    "isoregion": "US-AK",
    "country": "Alaska"
  },
  {
    "ident": "2AK4",
    "type": "small_airport",
    "name": "Bootleggers Cove Airport",
    "elev": 45,
    "lon": -151.51199,
    "lat": 59.470001,
    "isoregion": "US-AK",
    "country": "Alaska"
  },
  {
    "ident": "AK97",
    "type": "small_airport",
    "name": "Boswell Bay Airport",
    "elev": 230,
    "lon": -146.145996094,
    "lat": 60.4230995178,
    "isoregion": "US-AK",
    "country": "Alaska"
  },
  {
    "ident": "BYA",
    "type": "small_airport",
    "name": "Boundary Airport",
    "elev": 2940,
    "lon": -141.113006592,
    "lat": 64.0783004761,
    "isoregion": "US-AK",
    "country": "Alaska"
  },
  {
    "ident": "0AK7",
    "type": "small_airport",
    "name": "Bradley Lake Hydroelectric Project Airstrip",
    "elev": 18,
    "lon": -150.963285,
    "lat": 59.776005,
    "isoregion": "US-AK",
    "country": "Alaska"
  },
  {
    "ident": "95Z",
    "type": "small_airport",
    "name": "Bradley Sky-Ranch Airport",
    "elev": 483,
    "lon": -147.38800048828125,
    "lat": 64.75920104980469,
    "isoregion": "US-AK",
    "country": "Alaska"
  },
  {
    "ident": "AK05",
    "type": "small_airport",
    "name": "Breeden Airport",
    "elev": 365,
    "lon": -150.598612,
    "lat": 60.54234,
    "isoregion": "US-AK",
    "country": "Alaska"
  },
  {
    "ident": "PFKT",
    "type": "small_airport",
    "name": "Brevig Mission Airport",
    "elev": 38,
    "lon": -166.466003418,
    "lat": 65.3312988281,
    "isoregion": "US-AK",
    "country": "Alaska"
  },
  {
    "ident": "6A7",
    "type": "seaplane_base",
    "name": "Brocker Lake Seaplane Base",
    "elev": 100,
    "lon": -149.772994995,
    "lat": 61.4818000793,
    "isoregion": "US-AK",
    "country": "Alaska"
  },
  {
    "ident": "US-0338",
    "type": "small_airport",
    "name": "Brown's Homestead Airport",
    "elev": 140,
    "lon": -149.98245,
    "lat": 61.472911,
    "isoregion": "US-AK",
    "country": "Alaska"
  },
  {
    "ident": "US-3039",
    "type": "small_airport",
    "name": "Brownlow Point Airport",
    "elev": null,
    "lon": -144.834986,
    "lat": 69.979281,
    "isoregion": "US-AK",
    "country": "Alaska"
  },
  {
    "ident": "AK98",
    "type": "small_airport",
    "name": "Buck Creek Airport",
    "elev": 560,
    "lon": -167.48599243164062,
    "lat": 65.63870239257812,
    "isoregion": "US-AK",
    "country": "Alaska"
  },
  {
    "ident": "PABL",
    "type": "medium_airport",
    "name": "Buckland Airport",
    "elev": 31,
    "lon": -161.149002,
    "lat": 65.981598,
    "isoregion": "US-AK",
    "country": "Alaska"
  },
  {
    "ident": "PABU",
    "type": "small_airport",
    "name": "Bullen Point Short Range Radar Station Airport",
    "elev": 18,
    "lon": -146.844897,
    "lat": 70.170999,
    "isoregion": "US-AK",
    "country": "Alaska"
  },
  {
    "ident": "AA09",
    "type": "small_airport",
    "name": "Busch Creek Airport",
    "elev": 3984,
    "lon": -147.774722,
    "lat": 62.477502,
    "isoregion": "US-AK",
    "country": "Alaska"
  },
  {
    "ident": "6AK3",
    "type": "small_airport",
    "name": "Butler Aviation Airport",
    "elev": 185,
    "lon": -151.27779,
    "lat": 60.727784,
    "isoregion": "US-AK",
    "country": "Alaska"
  },
  {
    "ident": "AK1",
    "type": "small_airport",
    "name": "Butte Municipal Airport",
    "elev": 64,
    "lon": -149.01800537109375,
    "lat": 61.53030014038086,
    "isoregion": "US-AK",
    "country": "Alaska"
  },
  {
    "ident": "78AK",
    "type": "small_airport",
    "name": "C.T.S. Airport",
    "elev": 160,
    "lon": -150.5260009765625,
    "lat": 61.73310089111328,
    "isoregion": "US-AK",
    "country": "Alaska"
  },
  {
    "ident": "AK20",
    "type": "small_airport",
    "name": "CD-3 Airstrip",
    "elev": 7,
    "lon": -150.886667,
    "lat": 70.420622,
    "isoregion": "US-AK",
    "country": "Alaska"
  },
  {
    "ident": "AK18",
    "type": "small_airport",
    "name": "Camp Point Airport",
    "elev": 8,
    "lon": -153.08099365234375,
    "lat": 59.82849884033203,
    "isoregion": "US-AK",
    "country": "Alaska"
  },
  {
    "ident": "CSR",
    "type": "small_airport",
    "name": "Campbell Airstrip",
    "elev": 286,
    "lon": -149.781005859375,
    "lat": 61.15869903564453,
    "isoregion": "US-AK",
    "country": "Alaska"
  },
  {
    "ident": "3C3",
    "type": "seaplane_base",
    "name": "Campbell Lake Seaplane Base",
    "elev": 20,
    "lon": -149.942003,
    "lat": 61.133099,
    "isoregion": "US-AK",
    "country": "Alaska"
  },
  {
    "ident": "AK75",
    "type": "small_airport",
    "name": "Candle 2 Airport",
    "elev": 15,
    "lon": -161.925994873,
    "lat": 65.907699585,
    "isoregion": "US-AK",
    "country": "Alaska"
  },
  {
    "ident": "US-2903",
    "type": "small_airport",
    "name": "Canoe Bay Airport",
    "elev": null,
    "lon": -161.256611,
    "lat": 55.533453,
    "isoregion": "US-AK",
    "country": "Alaska"
  },
  {
    "ident": "PATW",
    "type": "small_airport",
    "name": "Cantwell Airport",
    "elev": 2190,
    "lon": -148.955995,
    "lat": 63.391201,
    "isoregion": "US-AK",
    "country": "Alaska"
  },
  {
    "ident": "US-0256",
    "type": "small_airport",
    "name": "Cape Field at Fort Glenn",
    "elev": 92,
    "lon": -167.8813,
    "lat": 53.38,
    "isoregion": "US-AK",
    "country": "Alaska"
  },
  {
    "ident": "PALU",
    "type": "medium_airport",
    "name": "Cape Lisburne LRRS Airport",
    "elev": 16,
    "lon": -166.1100006,
    "lat": 68.87509918,
    "isoregion": "US-AK",
    "country": "Alaska"
  },
  {
    "ident": "PAEH",
    "type": "medium_airport",
    "name": "Cape Newenham LRRS Airport",
    "elev": 541,
    "lon": -162.06300354,
    "lat": 58.646400451699996,
    "isoregion": "US-AK",
    "country": "Alaska"
  },
  {
    "ident": "Z71",
    "type": "seaplane_base",
    "name": "Cape Pole Seaplane Base",
    "elev": 0,
    "lon": -133.79699707,
    "lat": 55.9663009644,
    "isoregion": "US-AK",
    "country": "Alaska"
  },
  {
    "ident": "PACZ",
    "type": "medium_airport",
    "name": "Cape Romanzof LRRS Airport",
    "elev": 464,
    "lon": -166.0390015,
    "lat": 61.78030014,
    "isoregion": "US-AK",
    "country": "Alaska"
  },
  {
    "ident": "PACS",
    "type": "small_airport",
    "name": "Cape Sarichef Airport",
    "elev": 291,
    "lon": -164.905727,
    "lat": 54.583934,
    "isoregion": "US-AK",
    "country": "Alaska"
  },
  {
    "ident": "US-0201",
    "type": "small_airport",
    "name": "Cape Simpson Airport",
    "elev": null,
    "lon": -154.73912,
    "lat": 71.057926,
    "isoregion": "US-AK",
    "country": "Alaska"
  },
  {
    "ident": "34AK",
    "type": "small_airport",
    "name": "Cardwell Strip",
    "elev": 425,
    "lon": -149.28900146484375,
    "lat": 61.625,
    "isoregion": "US-AK",
    "country": "Alaska"
  },
  {
    "ident": "AK19",
    "type": "small_airport",
    "name": "Carl's Landing Airport",
    "elev": 300,
    "lon": -150.06399536132812,
    "lat": 62.17390060424805,
    "isoregion": "US-AK",
    "country": "Alaska"
  },
  {
    "ident": "64AK",
    "type": "small_airport",
    "name": "Carpentiers Strip",
    "elev": 175,
    "lon": -150.026829,
    "lat": 61.440132,
    "isoregion": "US-AK",
    "country": "Alaska"
  },
  {
    "ident": "8AK2",
    "type": "small_airport",
    "name": "Carty's Airstrip",
    "elev": 150,
    "lon": -151.294699,
    "lat": 60.699779,
    "isoregion": "US-AK",
    "country": "Alaska"
  },
  {
    "ident": "48AK",
    "type": "small_airport",
    "name": "Castle Mountain Airstrip",
    "elev": 1010,
    "lon": -148.494161367,
    "lat": 61.7960412696,
    "isoregion": "US-AK",
    "country": "Alaska"
  },
  {
    "ident": "US-2890",
    "type": "small_airport",
    "name": "Caves Lake Airport",
    "elev": null,
    "lon": -149.7807,
    "lat": 61.44839,
    "isoregion": "US-AK",
    "country": "Alaska"
  },
  {
    "ident": "US-2877",
    "type": "small_airport",
    "name": "Cavu Airport",
    "elev": null,
    "lon": -151.28845,
    "lat": 60.65849,
    "isoregion": "US-AK",
    "country": "Alaska"
  },
  {
    "ident": "PACE",
    "type": "small_airport",
    "name": "Central Airport",
    "elev": 937,
    "lon": -144.7830048,
    "lat": 65.57379913,
    "isoregion": "US-AK",
    "country": "Alaska"
  },
  {
    "ident": "PACI",
    "type": "small_airport",
    "name": "Chalkyitsik Airport",
    "elev": 544,
    "lon": -143.740005493,
    "lat": 66.6449966431,
    "isoregion": "US-AK",
    "country": "Alaska"
  },
  {
    "ident": "PALR",
    "type": "small_airport",
    "name": "Chandalar Lake Airport",
    "elev": 1920,
    "lon": -148.483001709,
    "lat": 67.5045013428,
    "isoregion": "US-AK",
    "country": "Alaska"
  },
  {
    "ident": "5CD",
    "type": "small_airport",
    "name": "Chandalar Shelf Airport",
    "elev": 3222,
    "lon": -149.577686,
    "lat": 68.073425,
    "isoregion": "US-AK",
    "country": "Alaska"
  },
  {
    "ident": "CYM",
    "type": "seaplane_base",
    "name": "Chatham Seaplane Base",
    "elev": 0,
    "lon": -134.945999,
    "lat": 57.5149,
    "isoregion": "US-AK",
    "country": "Alaska"
  },
  {
    "ident": "PACK",
    "type": "small_airport",
    "name": "Chefornak Airport",
    "elev": 49,
    "lon": -164.279167,
    "lat": 60.136667,
    "isoregion": "US-AK",
    "country": "Alaska"
  },
  {
    "ident": "AK13",
    "type": "small_airport",
    "name": "Chena Hot Springs Airport",
    "elev": 1195,
    "lon": -146.04699707,
    "lat": 65.0518035889,
    "isoregion": "US-AK",
    "country": "Alaska"
  },
  {
    "ident": "AK28",
    "type": "small_airport",
    "name": "Chena Marina Airport",
    "elev": 427,
    "lon": -147.91900634765625,
    "lat": 64.81400299072266,
    "isoregion": "US-AK",
    "country": "Alaska"
  },
  {
    "ident": "2Z5",
    "type": "seaplane_base",
    "name": "Chena River Seaplane Base",
    "elev": 440,
    "lon": -147.84800720214844,
    "lat": 64.83290100097656,
    "isoregion": "US-AK",
    "country": "Alaska"
  },
  {
    "ident": "PFCB",
    "type": "small_airport",
    "name": "Chenega Bay Airport",
    "elev": 72,
    "lon": -147.99468,
    "lat": 60.077602,
    "isoregion": "US-AK",
    "country": "Alaska"
  },
  {
    "ident": "KCN",
    "type": "seaplane_base",
    "name": "Chernofski Harbor Seaplane Base",
    "elev": 0,
    "lon": -167.52027154,
    "lat": 53.4028993416,
    "isoregion": "US-AK",
    "country": "Alaska"
  },
  {
    "ident": "45AK",
    "type": "small_airport",
    "name": "Cherokee Airport",
    "elev": 1300,
    "lon": -145.448536,
    "lat": 63.954955,
    "isoregion": "US-AK",
    "country": "Alaska"
  },
  {
    "ident": "PAVA",
    "type": "small_airport",
    "name": "Chevak Airport",
    "elev": 75,
    "lon": -165.6005,
    "lat": 61.5409,
    "isoregion": "US-AK",
    "country": "Alaska"
  },
  {
    "ident": "US-2886",
    "type": "small_airport",
    "name": "Chickaloon River Airport",
    "elev": null,
    "lon": -150.046,
    "lat": 60.8557,
    "isoregion": "US-AK",
    "country": "Alaska"
  },
  {
    "ident": "CKX",
    "type": "small_airport",
    "name": "Chicken Airport",
    "elev": 1640,
    "lon": -141.95199585,
    "lat": 64.0712966919,
    "isoregion": "US-AK",
    "country": "Alaska"
  },
  {
    "ident": "PAJC",
    "type": "small_airport",
    "name": "Chignik Airport",
    "elev": 18,
    "lon": -158.3730010986328,
    "lat": 56.311500549316406,
    "isoregion": "US-AK",
    "country": "Alaska"
  },
  {
    "ident": "Z78",
    "type": "seaplane_base",
    "name": "Chignik Bay Seaplane Base",
    "elev": null,
    "lon": -158.401000977,
    "lat": 56.295600891099994,
    "isoregion": "US-AK",
    "country": "Alaska"
  },
  {
    "ident": "KCL",
    "type": "small_airport",
    "name": "Chignik Lagoon Airport",
    "elev": 25,
    "lon": -158.5359955,
    "lat": 56.31119919,
    "isoregion": "US-AK",
    "country": "Alaska"
  },
  {
    "ident": "A79",
    "type": "small_airport",
    "name": "Chignik Lake Airport",
    "elev": 50,
    "lon": -158.774993896,
    "lat": 56.2550010681,
    "isoregion": "US-AK",
    "country": "Alaska"
  },
  {
    "ident": "CZN",
    "type": "small_airport",
    "name": "Chisana Airport",
    "elev": 3318,
    "lon": -142.04800415,
    "lat": 62.0712013245,
    "isoregion": "US-AK",
    "country": "Alaska"
  },
  {
    "ident": "CZO",
    "type": "small_airport",
    "name": "Chistochina Airport",
    "elev": 1850,
    "lon": -144.669006348,
    "lat": 62.5634994507,
    "isoregion": "US-AK",
    "country": "Alaska"
  },
  {
    "ident": "CXC",
    "type": "small_airport",
    "name": "Chitina Airport",
    "elev": 556,
    "lon": -144.427001953,
    "lat": 61.582901001,
    "isoregion": "US-AK",
    "country": "Alaska"
  },
  {
    "ident": "CIV",
    "type": "seaplane_base",
    "name": "Chomley Seaplane Base",
    "elev": 0,
    "lon": -132.21,
    "lat": 55.217,
    "isoregion": "US-AK",
    "country": "Alaska"
  },
  {
    "ident": "AK8",
    "type": "seaplane_base",
    "name": "Christiansen Lake Seaplane Base",
    "elev": 400,
    "lon": -150.06935,
    "lat": 62.313414,
    "isoregion": "US-AK",
    "country": "Alaska"
  },
  {
    "ident": "9A3",
    "type": "small_airport",
    "name": "Chuathbaluk Airport",
    "elev": 244,
    "lon": -159.216003,
    "lat": 61.579102,
    "isoregion": "US-AK",
    "country": "Alaska"
  },
  {
    "ident": "PACR",
    "type": "small_airport",
    "name": "Circle City (New) Airport",
    "elev": 613,
    "lon": -144.076195,
    "lat": 65.827673,
    "isoregion": "US-AK",
    "country": "Alaska"
  },
  {
    "ident": "CHP",
    "type": "small_airport",
    "name": "Circle Hot Springs Airport",
    "elev": 956,
    "lon": -144.610992432,
    "lat": 65.485496521,
    "isoregion": "US-AK",
    "country": "Alaska"
  },
  {
    "ident": "6AK9",
    "type": "small_airport",
    "name": "Cizek North Airport",
    "elev": 300,
    "lon": -149.6820068359375,
    "lat": 61.63349914550781,
    "isoregion": "US-AK",
    "country": "Alaska"
  },
  {
    "ident": "PFCL",
    "type": "small_airport",
    "name": "Clarks Point Airport",
    "elev": 80,
    "lon": -158.529007,
    "lat": 58.83369827,
    "isoregion": "US-AK",
    "country": "Alaska"
  },
  {
    "ident": "PACL",
    "type": "medium_airport",
    "name": "Clear Airport",
    "elev": 552,
    "lon": -149.119995,
    "lat": 64.301201,
    "isoregion": "US-AK",
    "country": "Alaska"
  },
  {
    "ident": "2AK2",
    "type": "small_airport",
    "name": "Clear Creek Airport",
    "elev": 660,
    "lon": -147.56300354003906,
    "lat": 64.45349884033203,
    "isoregion": "US-AK",
    "country": "Alaska"
  },
  {
    "ident": "CLF",
    "type": "small_airport",
    "name": "Clear Sky Lodge Airport",
    "elev": 650,
    "lon": -149.190554,
    "lat": 64.255997,
    "isoregion": "US-AK",
    "country": "Alaska"
  },
  {
    "ident": "L20",
    "type": "small_airport",
    "name": "Coal Creek Airport",
    "elev": 850,
    "lon": -143.13499450683594,
    "lat": 65.3113021850586,
    "isoregion": "US-AK",
    "country": "Alaska"
  },
  {
    "ident": "US-3340",
    "type": "small_airport",
    "name": "Coffee Point Airstrip",
    "elev": 49,
    "lon": -157.436654,
    "lat": 58.21393,
    "isoregion": "US-AK",
    "country": "Alaska"
  },
  {
    "ident": "KCC",
    "type": "seaplane_base",
    "name": "Coffman Cove Seaplane Base",
    "elev": 0,
    "lon": -132.841995239,
    "lat": 56.003200531,
    "isoregion": "US-AK",
    "country": "Alaska"
  },
  {
    "ident": "5AK6",
    "type": "small_airport",
    "name": "Colberg Airport",
    "elev": 125,
    "lon": -149.26800537109375,
    "lat": 61.55699920654297,
    "isoregion": "US-AK",
    "country": "Alaska"
  },
  {
    "ident": "PACD",
    "type": "medium_airport",
    "name": "Cold Bay Airport",
    "elev": 96,
    "lon": -162.725006,
    "lat": 55.2061,
    "isoregion": "US-AK",
    "country": "Alaska"
  },
  {
    "ident": "PACX",
    "type": "small_airport",
    "name": "Coldfoot Airport",
    "elev": 1042,
    "lon": -150.203994751,
    "lat": 67.25219726559999,
    "isoregion": "US-AK",
    "country": "Alaska"
  },
  {
    "ident": "US-0253",
    "type": "small_airport",
    "name": "Collensville/twincreek",
    "elev": null,
    "lon": -151.475352,
    "lat": 62.339363,
    "isoregion": "US-AK",
    "country": "Alaska"
  },
  {
    "ident": "KCR",
    "type": "small_airport",
    "name": "Colorado Creek Airport",
    "elev": 860,
    "lon": -155.988998413,
    "lat": 63.5676994324,
    "isoregion": "US-AK",
    "country": "Alaska"
  },
  {
    "ident": "Z93",
    "type": "small_airport",
    "name": "Copper Center 2 Airport",
    "elev": 1150,
    "lon": -145.299398,
    "lat": 61.943713,
    "isoregion": "US-AK",
    "country": "Alaska"
  },
  {
    "ident": "CKU",
    "type": "small_airport",
    "name": "Cordova Municipal Airport",
    "elev": 12,
    "lon": -145.727005005,
    "lat": 60.5438995361,
    "isoregion": "US-AK",
    "country": "Alaska"
  },
  {
    "ident": "3H3",
    "type": "seaplane_base",
    "name": "Cottonwood Lake Seaplane Base",
    "elev": 300,
    "lon": -149.315994263,
    "lat": 61.5975990295,
    "isoregion": "US-AK",
    "country": "Alaska"
  },
  {
    "ident": "K29",
    "type": "small_airport",
    "name": "Council Airport",
    "elev": 85,
    "lon": -163.70300293,
    "lat": 64.89790344240001,
    "isoregion": "US-AK",
    "country": "Alaska"
  },
  {
    "ident": "US-0558",
    "type": "small_airport",
    "name": "Crag Mountain Airport",
    "elev": 487,
    "lon": -148.908783,
    "lat": 61.704033,
    "isoregion": "US-AK",
    "country": "Alaska"
  },
  {
    "ident": "CGA",
    "type": "seaplane_base",
    "name": "Craig Seaplane Base",
    "elev": null,
    "lon": -133.1479949951172,
    "lat": 55.47880172729492,
    "isoregion": "US-AK",
    "country": "Alaska"
  },
  {
    "ident": "US-3163",
    "type": "small_airport",
    "name": "Creamers Field Airpark",
    "elev": null,
    "lon": -147.72685,
    "lat": 64.88159,
    "isoregion": "US-AK",
    "country": "Alaska"
  },
  {
    "ident": "1AK1",
    "type": "small_airport",
    "name": "Crevice Creek Airport",
    "elev": 840,
    "lon": -152.01600646972656,
    "lat": 67.3729019165039,
    "isoregion": "US-AK",
    "country": "Alaska"
  },
  {
    "ident": "CJX",
    "type": "small_airport",
    "name": "Crooked Creek Airport",
    "elev": 178,
    "lon": -158.134994507,
    "lat": 61.8679008484,
    "isoregion": "US-AK",
    "country": "Alaska"
  },
  {
    "ident": "1AK2",
    "type": "small_airport",
    "name": "Crosswind Lake Airport",
    "elev": 2125,
    "lon": -146.01300048828125,
    "lat": 62.400901794433594,
    "isoregion": "US-AK",
    "country": "Alaska"
  },
  {
    "ident": "US-1262",
    "type": "seaplane_base",
    "name": "Crystal Creek Lodge Seaplane Base",
    "elev": 4,
    "lon": -156.577764,
    "lat": 58.646294,
    "isoregion": "US-AK",
    "country": "Alaska"
  },
  {
    "ident": "9AK7",
    "type": "small_airport",
    "name": "Cubdivision Airport",
    "elev": 250,
    "lon": -149.81700134277344,
    "lat": 61.58980178833008,
    "isoregion": "US-AK",
    "country": "Alaska"
  },
  {
    "ident": "US-4953",
    "type": "small_airport",
    "name": "Cube Cove Airport",
    "elev": 571,
    "lon": -134.7125,
    "lat": 57.92998,
    "isoregion": "US-AK",
    "country": "Alaska"
  },
  {
    "ident": "D72",
    "type": "seaplane_base",
    "name": "D&C Fire Lake Flying Club Seaplane Base",
    "elev": 295,
    "lon": -149.54600524902344,
    "lat": 61.352500915527344,
    "isoregion": "US-AK",
    "country": "Alaska"
  },
  {
    "ident": "DCK",
    "type": "small_airport",
    "name": "Dahl Creek Airport",
    "elev": 260,
    "lon": -156.904998779,
    "lat": 66.9432983398,
    "isoregion": "US-AK",
    "country": "Alaska"
  },
  {
    "ident": "7AK5",
    "type": "small_airport",
    "name": "Dahler Homestead Airport",
    "elev": 300,
    "lon": -150.93600463867188,
    "lat": 60.50360107421875,
    "isoregion": "US-AK",
    "country": "Alaska"
  },
  {
    "ident": "31AK",
    "type": "small_airport",
    "name": "Dalrymple's Airport",
    "elev": 450,
    "lon": -147.437024,
    "lat": 64.83453,
    "isoregion": "US-AK",
    "country": "Alaska"
  },
  {
    "ident": "7AK6",
    "type": "small_airport",
    "name": "Dan France Airport",
    "elev": 260,
    "lon": -150.929875,
    "lat": 60.475686,
    "isoregion": "US-AK",
    "country": "Alaska"
  },
  {
    "ident": "US-2882",
    "type": "small_airport",
    "name": "Daniels Lake Airport",
    "elev": null,
    "lon": -151.213632,
    "lat": 60.733784,
    "isoregion": "US-AK",
    "country": "Alaska"
  },
  {
    "ident": "45AA",
    "type": "small_airport",
    "name": "Davidson Strip Airport",
    "elev": 383,
    "lon": -150.5396083,
    "lat": 62.1628972,
    "isoregion": "US-AK",
    "country": "Alaska"
  },
  {
    "ident": "PASC",
    "type": "medium_airport",
    "name": "Deadhorse Airport",
    "elev": 65,
    "lon": -148.4649963,
    "lat": 70.19470215,
    "isoregion": "US-AK",
    "country": "Alaska"
  },
  {
    "ident": "PADE",
    "type": "medium_airport",
    "name": "Deering Airport",
    "elev": 21,
    "lon": -162.766006,
    "lat": 66.069603,
    "isoregion": "US-AK",
    "country": "Alaska"
  },
  {
    "ident": "AA22",
    "type": "small_airport",
    "name": "Delta Daves Airport",
    "elev": 1070,
    "lon": -145.804494,
    "lat": 64.132858,
    "isoregion": "US-AK",
    "country": "Alaska"
  },
  {
    "ident": "D66",
    "type": "small_airport",
    "name": "Delta Junction Airport",
    "elev": 1150,
    "lon": -145.716995239,
    "lat": 64.0503997803,
    "isoregion": "US-AK",
    "country": "Alaska"
  },
  {
    "ident": "US-3041",
    "type": "small_airport",
    "name": "Demarcation Bay Airfield",
    "elev": null,
    "lon": -142.305616,
    "lat": 69.882551,
    "isoregion": "US-AK",
    "country": "Alaska"
  },
  {
    "ident": "AK06",
    "type": "small_airport",
    "name": "Denali Airport",
    "elev": 2050,
    "lon": -148.79800415039062,
    "lat": 63.64509963989258,
    "isoregion": "US-AK",
    "country": "Alaska"
  },
  {
    "ident": "IBN",
    "type": "small_airport",
    "name": "Devils Mountain Lodge Airport",
    "elev": 2880,
    "lon": -142.994995117,
    "lat": 62.4017982483,
    "isoregion": "US-AK",
    "country": "Alaska"
  },
  {
    "ident": "PADL",
    "type": "medium_airport",
    "name": "Dillingham Airport",
    "elev": 81,
    "lon": -158.5050049,
    "lat": 59.04470062,
    "isoregion": "US-AK",
    "country": "Alaska"
  },
  {
    "ident": "AK07",
    "type": "small_airport",
    "name": "Dog Fish Bay Airport",
    "elev": 10,
    "lon": -151.875,
    "lat": 59.246222,
    "isoregion": "US-AK",
    "country": "Alaska"
  },
  {
    "ident": "PFCR",
    "type": "small_airport",
    "name": "Donlin Creek Airport",
    "elev": 733,
    "lon": -158.234251,
    "lat": 62.031757,
    "isoregion": "US-AK",
    "country": "Alaska"
  },
  {
    "ident": "AA12",
    "type": "seaplane_base",
    "name": "Dove Island Lodge Seaplane Base",
    "elev": 0,
    "lon": -135.2955556,
    "lat": 57.0408333,
    "isoregion": "US-AK",
    "country": "Alaska"
  },
  {
    "ident": "30AK",
    "type": "small_airport",
    "name": "Doyle Estates Airport",
    "elev": 50,
    "lon": -151.260023,
    "lat": 60.505807,
    "isoregion": "US-AK",
    "country": "Alaska"
  },
  {
    "ident": "3AK5",
    "type": "small_airport",
    "name": "Drift River Airport",
    "elev": 30,
    "lon": -152.162002563,
    "lat": 60.588901519800004,
    "isoregion": "US-AK",
    "country": "Alaska"
  },
  {
    "ident": "PAAM",
    "type": "small_airport",
    "name": "Driftwood Bay Air Force Station Airport",
    "elev": 24,
    "lon": -166.858459473,
    "lat": 53.9729499817,
    "isoregion": "US-AK",
    "country": "Alaska"
  },
  {
    "ident": "K3AK",
    "type": "small_airport",
    "name": "Dry Bay Airport",
    "elev": 43,
    "lon": -138.489398,
    "lat": 59.164434,
    "isoregion": "US-AK",
    "country": "Alaska"
  },
  {
    "ident": "DDT",
    "type": "small_airport",
    "name": "Duffys Tavern Airport",
    "elev": 2420,
    "lon": -143.92100524902344,
    "lat": 62.72460174560547,
    "isoregion": "US-AK",
    "country": "Alaska"
  },
  {
    "ident": "88AK",
    "type": "small_airport",
    "name": "Dutch Landing Strip",
    "elev": 300,
    "lon": -150.869129,
    "lat": 60.539839,
    "isoregion": "US-AK",
    "country": "Alaska"
  },
  {
    "ident": "PAEG",
    "type": "small_airport",
    "name": "Eagle Airport",
    "elev": 908,
    "lon": -141.151001,
    "lat": 64.77639771,
    "isoregion": "US-AK",
    "country": "Alaska"
  },
  {
    "ident": "AK88",
    "type": "small_airport",
    "name": "Eagle Nest Airport",
    "elev": 416,
    "lon": -149.0399932861328,
    "lat": 61.604698181152344,
    "isoregion": "US-AK",
    "country": "Alaska"
  },
  {
    "ident": "AA10",
    "type": "small_airport",
    "name": "Eagles Roost Airport",
    "elev": 330,
    "lon": -149.698768,
    "lat": 61.532891,
    "isoregion": "US-AK",
    "country": "Alaska"
  },
  {
    "ident": "PASY",
    "type": "medium_airport",
    "name": "Eareckson Air Station",
    "elev": 95,
    "lon": 174.1139984,
    "lat": 52.71229935,
    "isoregion": "US-AK",
    "country": "Alaska"
  },
  {
    "ident": "AK76",
    "type": "small_airport",
    "name": "East Alsek River Airport",
    "elev": 20,
    "lon": -138.409216,
    "lat": 59.126338,
    "isoregion": "US-AK",
    "country": "Alaska"
  },
  {
    "ident": "98AK",
    "type": "small_airport",
    "name": "Eastland Airport",
    "elev": 1190,
    "lon": -151.187882,
    "lat": 59.77621,
    "isoregion": "US-AK",
    "country": "Alaska"
  },
  {
    "ident": "EDA",
    "type": "seaplane_base",
    "name": "Edna Bay Seaplane Base",
    "elev": 0,
    "lon": -133.661012,
    "lat": 55.949653,
    "isoregion": "US-AK",
    "country": "Alaska"
  },
  {
    "ident": "PAGA",
    "type": "medium_airport",
    "name": "Edward G. Pitka Sr Airport",
    "elev": 153,
    "lon": -156.9369965,
    "lat": 64.73619843,
    "isoregion": "US-AK",
    "country": "Alaska"
  },
  {
    "ident": "PAEE",
    "type": "small_airport",
    "name": "Eek Airport",
    "elev": 12,
    "lon": -162.0438843,
    "lat": 60.21367264,
    "isoregion": "US-AK",
    "country": "Alaska"
  },
  {
    "ident": "PAII",
    "type": "medium_airport",
    "name": "Egegik Airport",
    "elev": 92,
    "lon": -157.374873,
    "lat": 58.184386,
    "isoregion": "US-AK",
    "country": "Alaska"
  },
  {
    "ident": "PAEI",
    "type": "medium_airport",
    "name": "Eielson Air Force Base",
    "elev": 547,
    "lon": -147.102005,
    "lat": 64.66570282,
    "isoregion": "US-AK",
    "country": "Alaska"
  },
  {
    "ident": "KKU",
    "type": "small_airport",
    "name": "Ekuk Airport",
    "elev": 30,
    "lon": -158.559005737,
    "lat": 58.8111991882,
    "isoregion": "US-AK",
    "country": "Alaska"
  },
  {
    "ident": "KEK",
    "type": "small_airport",
    "name": "Ekwok Airport",
    "elev": 135,
    "lon": -157.4709930419922,
    "lat": 59.3568000793457,
    "isoregion": "US-AK",
    "country": "Alaska"
  },
  {
    "ident": "5C5",
    "type": "seaplane_base",
    "name": "El Capitan Lodge Seaplane Base",
    "elev": null,
    "lon": -133.2530059814453,
    "lat": 55.95859909057617,
    "isoregion": "US-AK",
    "country": "Alaska"
  },
  {
    "ident": "PAEL",
    "type": "seaplane_base",
    "name": "Elfin Cove Seaplane Base",
    "elev": 0,
    "lon": -136.347000122,
    "lat": 58.195201873799995,
    "isoregion": "US-AK",
    "country": "Alaska"
  },
  {
    "ident": "PFEL",
    "type": "small_airport",
    "name": "Elim Airport",
    "elev": 162,
    "lon": -162.2720032,
    "lat": 64.61470032,
    "isoregion": "US-AK",
    "country": "Alaska"
  },
  {
    "ident": "9AA1",
    "type": "small_airport",
    "name": "Elk Ranch Airport",
    "elev": 800,
    "lon": -149.29073,
    "lat": 61.68203,
    "isoregion": "US-AK",
    "country": "Alaska"
  },
  {
    "ident": "1Z9",
    "type": "seaplane_base",
    "name": "Ellamar Seaplane Base",
    "elev": 0,
    "lon": -146.704038,
    "lat": 60.893818,
    "isoregion": "US-AK",
    "country": "Alaska"
  },
  {
    "ident": "PAED",
    "type": "medium_airport",
    "name": "Elmendorf Air Force Base",
    "elev": 212,
    "lon": -149.8070068359375,
    "lat": 61.250999450683594,
    "isoregion": "US-AK",
    "country": "Alaska"
  },
  {
    "ident": "PAEM",
    "type": "medium_airport",
    "name": "Emmonak Airport",
    "elev": 13,
    "lon": -164.4909973,
    "lat": 62.78609848,
    "isoregion": "US-AK",
    "country": "Alaska"
  },
  {
    "ident": "AK5",
    "type": "seaplane_base",
    "name": "Encelewski Lake Seaplane Base",
    "elev": 230,
    "lon": -151.30299377441406,
    "lat": 60.25559997558594,
    "isoregion": "US-AK",
    "country": "Alaska"
  },
  {
    "ident": "Z47",
    "type": "small_airport",
    "name": "Engstrom Field",
    "elev": 143,
    "lon": -165.299205,
    "lat": 64.67909,
    "isoregion": "US-AK",
    "country": "Alaska"
  },
  {
    "ident": "2Z1",
    "type": "seaplane_base",
    "name": "Entrance Island Seaplane Base",
    "elev": 0,
    "lon": -133.43848,
    "lat": 57.412201,
    "isoregion": "US-AK",
    "country": "Alaska"
  },
  {
    "ident": "2Z2",
    "type": "small_airport",
    "name": "Eureka Creek Airport",
    "elev": 700,
    "lon": -150.2209930419922,
    "lat": 65.1759033203125,
    "isoregion": "US-AK",
    "country": "Alaska"
  },
  {
    "ident": "2Z3",
    "type": "small_airport",
    "name": "Eva Creek Airport",
    "elev": 2817,
    "lon": -148.86300659179688,
    "lat": 64.04199981689453,
    "isoregion": "US-AK",
    "country": "Alaska"
  },
  {
    "ident": "EXI",
    "type": "seaplane_base",
    "name": "Excursion Inlet Seaplane Base",
    "elev": 0,
    "lon": -135.449005,
    "lat": 58.420502,
    "isoregion": "US-AK",
    "country": "Alaska"
  },
  {
    "ident": "PAFA",
    "type": "large_airport",
    "name": "Fairbanks International Airport",
    "elev": 439,
    "lon": -147.8560028,
    "lat": 64.81510162,
    "isoregion": "US-AK",
    "country": "Alaska"
  },
  {
    "ident": "58AK",
    "type": "small_airport",
    "name": "Fairview East Airport",
    "elev": 100,
    "lon": -149.33999633789062,
    "lat": 61.5526008605957,
    "isoregion": "US-AK",
    "country": "Alaska"
  },
  {
    "ident": "AK58",
    "type": "small_airport",
    "name": "Fairview West Airport",
    "elev": 73,
    "lon": -149.5489959716797,
    "lat": 61.540000915527344,
    "isoregion": "US-AK",
    "country": "Alaska"
  },
  {
    "ident": "0AK9",
    "type": "small_airport",
    "name": "Falcon Lake Strip",
    "elev": 110,
    "lon": -150.0590057373047,
    "lat": 61.33259963989258,
    "isoregion": "US-AK",
    "country": "Alaska"
  },
  {
    "ident": "2Z6",
    "type": "seaplane_base",
    "name": "False Island Seaplane Base",
    "elev": null,
    "lon": -135.212997437,
    "lat": 57.5321998596,
    "isoregion": "US-AK",
    "country": "Alaska"
  },
  {
    "ident": "PAKF",
    "type": "small_airport",
    "name": "False Pass Airport",
    "elev": 20,
    "lon": -163.41000366210938,
    "lat": 54.8474006652832,
    "isoregion": "US-AK",
    "country": "Alaska"
  },
  {
    "ident": "PAFW",
    "type": "small_airport",
    "name": "Farewell Airport",
    "elev": 1535,
    "lon": -153.892279,
    "lat": 62.509327,
    "isoregion": "US-AK",
    "country": "Alaska"
  },
  {
    "ident": "PAFK",
    "type": "seaplane_base",
    "name": "Farewell Lake Seaplane Base",
    "elev": 1052,
    "lon": -153.6230010986328,
    "lat": 62.54249954223633,
    "isoregion": "US-AK",
    "country": "Alaska"
  },
  {
    "ident": "3Z1",
    "type": "small_airport",
    "name": "Feather River Airport",
    "elev": 325,
    "lon": -166.1320037841797,
    "lat": 64.83170318603516,
    "isoregion": "US-AK",
    "country": "Alaska"
  },
  {
    "ident": "US-2860",
    "type": "small_airport",
    "name": "Feuding Lane North Airport",
    "elev": null,
    "lon": -150.65179,
    "lat": 60.52221,
    "isoregion": "US-AK",
    "country": "Alaska"
  },
  {
    "ident": "US-2859",
    "type": "small_airport",
    "name": "Feuding Lane South Airport",
    "elev": null,
    "lon": -150.64422,
    "lat": 60.50035,
    "isoregion": "US-AK",
    "country": "Alaska"
  },
  {
    "ident": "99Z",
    "type": "seaplane_base",
    "name": "Finger Lake Seaplane Base",
    "elev": 337,
    "lon": -149.2779998779297,
    "lat": 61.60649871826172,
    "isoregion": "US-AK",
    "country": "Alaska"
  },
  {
    "ident": "6AK5",
    "type": "small_airport",
    "name": "Fire Island Airport",
    "elev": 55,
    "lon": -150.160532,
    "lat": 61.168742,
    "isoregion": "US-AK",
    "country": "Alaska"
  },
  {
    "ident": "US-2887",
    "type": "small_airport",
    "name": "Fire Tower Ridge Airstrip",
    "elev": null,
    "lon": -149.647264,
    "lat": 61.353667,
    "isoregion": "US-AK",
    "country": "Alaska"
  },
  {
    "ident": "US-0688",
    "type": "small_airport",
    "name": "Fireweed Airport",
    "elev": 1320,
    "lon": -142.97823,
    "lat": 61.42687,
    "isoregion": "US-AK",
    "country": "Alaska"
  },
  {
    "ident": "US-2891",
    "type": "small_airport",
    "name": "Fish Creek Airport",
    "elev": 1,
    "lon": -149.79678,
    "lat": 61.44932,
    "isoregion": "US-AK",
    "country": "Alaska"
  },
  {
    "ident": "US-3522",
    "type": "small_airport",
    "name": "Fish Lakes Northeast Airstrip 1",
    "elev": 318,
    "lon": -150.873782,
    "lat": 61.978107,
    "isoregion": "US-AK",
    "country": "Alaska"
  },
  {
    "ident": "US-3523",
    "type": "small_airport",
    "name": "Fish Lakes Northeast Airstrip 2",
    "elev": 325,
    "lon": -150.883858,
    "lat": 61.981207,
    "isoregion": "US-AK",
    "country": "Alaska"
  },
  {
    "ident": "08AK",
    "type": "small_airport",
    "name": "Fisher Airport",
    "elev": 200,
    "lon": -149.724439,
    "lat": 61.569639,
    "isoregion": "US-AK",
    "country": "Alaska"
  },
  {
    "ident": "FLT",
    "type": "small_airport",
    "name": "Flat Airport",
    "elev": 309,
    "lon": -157.988998413,
    "lat": 62.452598571799996,
    "isoregion": "US-AK",
    "country": "Alaska"
  },
  {
    "ident": "FXM",
    "type": "small_airport",
    "name": "Flaxman Island Airstrip",
    "elev": 20,
    "lon": -146.020904,
    "lat": 70.1895,
    "isoregion": "US-AK",
    "country": "Alaska"
  },
  {
    "ident": "US-3308",
    "type": "small_airport",
    "name": "Flight Bound Airstrip",
    "elev": 216,
    "lon": -150.7867,
    "lat": 60.522,
    "isoregion": "US-AK",
    "country": "Alaska"
  },
  {
    "ident": "US-6415",
    "type": "small_airport",
    "name": "Fly8ma Pilot Lodge Airport",
    "elev": 220,
    "lon": -149.803772,
    "lat": 61.584332,
    "isoregion": "US-AK",
    "country": "Alaska"
  },
  {
    "ident": "AK12",
    "type": "small_airport",
    "name": "Flying Crown Airport",
    "elev": 47,
    "lon": -149.86399841308594,
    "lat": 61.10660171508789,
    "isoregion": "US-AK",
    "country": "Alaska"
  },
  {
    "ident": "04AA",
    "type": "small_airport",
    "name": "Flying W Ranch Airport",
    "elev": 250,
    "lon": -150.811387,
    "lat": 60.535833,
    "isoregion": "US-AK",
    "country": "Alaska"
  },
  {
    "ident": "36AK",
    "type": "small_airport",
    "name": "Flyway Farm Airstrip",
    "elev": 150,
    "lon": -150.069781,
    "lat": 61.346437,
    "isoregion": "US-AK",
    "country": "Alaska"
  },
  {
    "ident": "8AK5",
    "type": "small_airport",
    "name": "Fort Crosby Airport",
    "elev": 650,
    "lon": -150.265277,
    "lat": 62.513888,
    "isoregion": "US-AK",
    "country": "Alaska"
  },
  {
    "ident": "AK60",
    "type": "small_airport",
    "name": "Fort Jensen Airport",
    "elev": 240,
    "lon": -157.095036,
    "lat": 57.884684,
    "isoregion": "US-AK",
    "country": "Alaska"
  },
  {
    "ident": "PFYU",
    "type": "medium_airport",
    "name": "Fort Yukon Airport",
    "elev": 433,
    "lon": -145.25,
    "lat": 66.57150268554688,
    "isoregion": "US-AK",
    "country": "Alaska"
  },
  {
    "ident": "14AK",
    "type": "small_airport",
    "name": "Four Corners Airport",
    "elev": 300,
    "lon": -149.2480010986328,
    "lat": 61.60150146484375,
    "isoregion": "US-AK",
    "country": "Alaska"
  },
  {
    "ident": "US-2931",
    "type": "small_airport",
    "name": "Francen Airstrip",
    "elev": 3140,
    "lon": -144.885176,
    "lat": 63.066581,
    "isoregion": "US-AK",
    "country": "Alaska"
  },
  {
    "ident": "US-2870",
    "type": "small_airport",
    "name": "Funny River Airport",
    "elev": null,
    "lon": -150.8587,
    "lat": 60.494101,
    "isoregion": "US-AK",
    "country": "Alaska"
  },
  {
    "ident": "PANR",
    "type": "seaplane_base",
    "name": "Funter Bay Seaplane Base",
    "elev": 0,
    "lon": -134.897994995,
    "lat": 58.2543983459,
    "isoregion": "US-AK",
    "country": "Alaska"
  },
  {
    "ident": "7AK3",
    "type": "small_airport",
    "name": "Gaede Airport",
    "elev": 115,
    "lon": -151.17136,
    "lat": 60.476933,
    "isoregion": "US-AK",
    "country": "Alaska"
  },
  {
    "ident": "PAGB",
    "type": "small_airport",
    "name": "Galbraith Lake Airport",
    "elev": 2663,
    "lon": -149.490005493,
    "lat": 68.4796981812,
    "isoregion": "US-AK",
    "country": "Alaska"
  },
  {
    "ident": "PAGM",
    "type": "medium_airport",
    "name": "Gambell Airport",
    "elev": 27,
    "lon": -171.73300170898438,
    "lat": 63.76679992675781,
    "isoregion": "US-AK",
    "country": "Alaska"
  },
  {
    "ident": "AK83",
    "type": "small_airport",
    "name": "Gannon's Landing Airport",
    "elev": 380,
    "lon": -149.60899353027344,
    "lat": 61.62730026245117,
    "isoregion": "US-AK",
    "country": "Alaska"
  },
  {
    "ident": "US-2855",
    "type": "small_airport",
    "name": "Gardner Airport",
    "elev": null,
    "lon": -151.148229,
    "lat": 60.424149,
    "isoregion": "US-AK",
    "country": "Alaska"
  },
  {
    "ident": "28AK",
    "type": "small_airport",
    "name": "Gates Ranch Airport",
    "elev": 1875,
    "lon": -147.858993,
    "lat": 61.808899,
    "isoregion": "US-AK",
    "country": "Alaska"
  },
  {
    "ident": "16AK",
    "type": "small_airport",
    "name": "Gattis Strip",
    "elev": 320,
    "lon": -149.339926,
    "lat": 61.596643,
    "isoregion": "US-AK",
    "country": "Alaska"
  },
  {
    "ident": "AQY",
    "type": "small_airport",
    "name": "Girdwood Airport",
    "elev": 150,
    "lon": -149.119792,
    "lat": 60.968774,
    "isoregion": "US-AK",
    "country": "Alaska"
  },
  {
    "ident": "KGZ",
    "type": "small_airport",
    "name": "Glacier Creek Airport",
    "elev": 2380,
    "lon": -142.380996704,
    "lat": 61.4551010132,
    "isoregion": "US-AK",
    "country": "Alaska"
  },
  {
    "ident": "US-3524",
    "type": "small_airport",
    "name": "Glacier Park Airport",
    "elev": 1520,
    "lon": -147.786525,
    "lat": 61.789395,
    "isoregion": "US-AK",
    "country": "Alaska"
  },
  {
    "ident": "AK17",
    "type": "small_airport",
    "name": "Glacierview Strip",
    "elev": 1600,
    "lon": -151.22300720214844,
    "lat": 59.76359939575195,
    "isoregion": "US-AK",
    "country": "Alaska"
  },
  {
    "ident": "PAAN",
    "type": "small_airport",
    "name": "Gold King Creek Airport",
    "elev": 1720,
    "lon": -147.92799377441406,
    "lat": 64.1989974975586,
    "isoregion": "US-AK",
    "country": "Alaska"
  },
  {
    "ident": "3Z8",
    "type": "seaplane_base",
    "name": "Golden Horn Lodge Seaplane Base",
    "elev": 91,
    "lon": -158.875,
    "lat": 59.7470016479,
    "isoregion": "US-AK",
    "country": "Alaska"
  },
  {
    "ident": "15AK",
    "type": "small_airport",
    "name": "Golden North Airfield",
    "elev": 2250,
    "lon": -148.85000610351562,
    "lat": 63.37070083618164,
    "isoregion": "US-AK",
    "country": "Alaska"
  },
  {
    "ident": "PAGL",
    "type": "small_airport",
    "name": "Golovin Airport",
    "elev": 59,
    "lon": -163.007003784,
    "lat": 64.5504989624,
    "isoregion": "US-AK",
    "country": "Alaska"
  },
  {
    "ident": "2D3",
    "type": "seaplane_base",
    "name": "Gooding Lake Seaplane Base",
    "elev": 500,
    "lon": -149.23899841308594,
    "lat": 61.62770080566406,
    "isoregion": "US-AK",
    "country": "Alaska"
  },
  {
    "ident": "GNU",
    "type": "small_airport",
    "name": "Goodnews Airport",
    "elev": 15,
    "lon": -161.57699585,
    "lat": 59.117401123,
    "isoregion": "US-AK",
    "country": "Alaska"
  },
  {
    "ident": "Z40",
    "type": "small_airport",
    "name": "Goose Bay Airport",
    "elev": 78,
    "lon": -149.84534,
    "lat": 61.394674,
    "isoregion": "US-AK",
    "country": "Alaska"
  },
  {
    "ident": "AK99",
    "type": "small_airport",
    "name": "Grand Home Airport",
    "elev": 85,
    "lon": -149.761111,
    "lat": 61.446667,
    "isoregion": "US-AK",
    "country": "Alaska"
  },
  {
    "ident": "5AK9",
    "type": "small_airport",
    "name": "Grandview Subdivision Airport",
    "elev": 150,
    "lon": -149.19000244140625,
    "lat": 61.548500061035156,
    "isoregion": "US-AK",
    "country": "Alaska"
  },
  {
    "ident": "GSZ",
    "type": "small_airport",
    "name": "Granite Mountain Air Station",
    "elev": 1313,
    "lon": -161.2810059,
    "lat": 65.40209961,
    "isoregion": "US-AK",
    "country": "Alaska"
  },
  {
    "ident": "US-2901",
    "type": "small_airport",
    "name": "Granite Point Airport",
    "elev": null,
    "lon": -151.334206,
    "lat": 61.023339,
    "isoregion": "US-AK",
    "country": "Alaska"
  },
  {
    "ident": "KGX",
    "type": "small_airport",
    "name": "Grayling Airport",
    "elev": 99,
    "lon": -160.066289,
    "lat": 62.895187,
    "isoregion": "US-AK",
    "country": "Alaska"
  },
  {
    "ident": "US-2873",
    "type": "small_airport",
    "name": "Greatland Airport",
    "elev": null,
    "lon": -150.7687,
    "lat": 60.5333,
    "isoregion": "US-AK",
    "country": "Alaska"
  },
  {
    "ident": "US-0309",
    "type": "small_airport",
    "name": "Grebe Lake Airport",
    "elev": 250,
    "lon": -149.623942,
    "lat": 61.559459,
    "isoregion": "US-AK",
    "country": "Alaska"
  },
  {
    "ident": "AK65",
    "type": "small_airport",
    "name": "Green's Strip",
    "elev": 300,
    "lon": -149.3509979248047,
    "lat": 61.597900390625,
    "isoregion": "US-AK",
    "country": "Alaska"
  },
  {
    "ident": "AK41",
    "type": "small_airport",
    "name": "Greg'n Sage Airport",
    "elev": 925,
    "lon": -146.845551,
    "lat": 64.544038,
    "isoregion": "US-AK",
    "country": "Alaska"
  },
  {
    "ident": "AK93",
    "type": "small_airport",
    "name": "Grouse Ridge Airport",
    "elev": 535,
    "lon": -149.2729949951172,
    "lat": 61.65520095825195,
    "isoregion": "US-AK",
    "country": "Alaska"
  },
  {
    "ident": "PAGK",
    "type": "medium_airport",
    "name": "Gulkana Airport",
    "elev": 1586,
    "lon": -145.4570007,
    "lat": 62.1548996,
    "isoregion": "US-AK",
    "country": "Alaska"
  },
  {
    "ident": "AA33",
    "type": "small_airport",
    "name": "Gus Landing",
    "elev": 120,
    "lon": -149.770119,
    "lat": 61.60415,
    "isoregion": "US-AK",
    "country": "Alaska"
  },
  {
    "ident": "PAGS",
    "type": "medium_airport",
    "name": "Gustavus Airport",
    "elev": 35,
    "lon": -135.7070007,
    "lat": 58.4253006,
    "isoregion": "US-AK",
    "country": "Alaska"
  },
  {
    "ident": "96AK",
    "type": "seaplane_base",
    "name": "Hackney Landing Seaplane Base",
    "elev": 208,
    "lon": -151.3459930419922,
    "lat": 60.28779983520508,
    "isoregion": "US-AK",
    "country": "Alaska"
  },
  {
    "ident": "US-0484",
    "type": "seaplane_base",
    "name": "Haggards Landing Seaplane Base",
    "elev": 150,
    "lon": -150.014681,
    "lat": 61.528024,
    "isoregion": "US-AK",
    "country": "Alaska"
  },
  {
    "ident": "PAHN",
    "type": "medium_airport",
    "name": "Haines Airport",
    "elev": 15,
    "lon": -135.5240020751953,
    "lat": 59.24380111694336,
    "isoregion": "US-AK",
    "country": "Alaska"
  },
  {
    "ident": "3Z9",
    "type": "seaplane_base",
    "name": "Haines Seaplane Base",
    "elev": null,
    "lon": -135.4409942626953,
    "lat": 59.23500061035156,
    "isoregion": "US-AK",
    "country": "Alaska"
  },
  {
    "ident": "Z58",
    "type": "seaplane_base",
    "name": "Hangar Lake Seaplane Base",
    "elev": 17,
    "lon": -161.727024,
    "lat": 60.803324,
    "isoregion": "US-AK",
    "country": "Alaska"
  },
  {
    "ident": "32AK",
    "type": "small_airport",
    "name": "Hardrock Field",
    "elev": 664,
    "lon": -147.908047,
    "lat": 64.909078,
    "isoregion": "US-AK",
    "country": "Alaska"
  },
  {
    "ident": "A67",
    "type": "small_airport",
    "name": "Harlequin Lake Airport",
    "elev": 100,
    "lon": -139.033012,
    "lat": 59.414431,
    "isoregion": "US-AK",
    "country": "Alaska"
  },
  {
    "ident": "HWI",
    "type": "seaplane_base",
    "name": "Hawk Inlet Seaplane Base",
    "elev": null,
    "lon": -134.75599670410156,
    "lat": 58.12739944458008,
    "isoregion": "US-AK",
    "country": "Alaska"
  },
  {
    "ident": "HAY",
    "type": "small_airport",
    "name": "Haycock Airport",
    "elev": 175,
    "lon": -161.156997681,
    "lat": 65.20099639889999,
    "isoregion": "US-AK",
    "country": "Alaska"
  },
  {
    "ident": "HKB",
    "type": "small_airport",
    "name": "Healy Lake Airport",
    "elev": 1180,
    "lon": -144.6926,
    "lat": 63.9958,
    "isoregion": "US-AK",
    "country": "Alaska"
  },
  {
    "ident": "PAHV",
    "type": "small_airport",
    "name": "Healy River Airport",
    "elev": 1263,
    "lon": -148.968994140625,
    "lat": 63.8661994934082,
    "isoregion": "US-AK",
    "country": "Alaska"
  },
  {
    "ident": "75AK",
    "type": "small_airport",
    "name": "Henley Airport",
    "elev": 100,
    "lon": -151.327956,
    "lat": 60.593067,
    "isoregion": "US-AK",
    "country": "Alaska"
  },
  {
    "ident": "AK33",
    "type": "small_airport",
    "name": "Herendeen Bay Airport",
    "elev": 20,
    "lon": -160.899002075,
    "lat": 55.801399231,
    "isoregion": "US-AK",
    "country": "Alaska"
  },
  {
    "ident": "7AK8",
    "type": "small_airport",
    "name": "Hess Airport",
    "elev": 355,
    "lon": -149.61500549316406,
    "lat": 61.621299743652344,
    "isoregion": "US-AK",
    "country": "Alaska"
  },
  {
    "ident": "97AK",
    "type": "small_airport",
    "name": "High Ridge Association Airport",
    "elev": 720,
    "lon": -149.25399780273438,
    "lat": 61.66400146484375,
    "isoregion": "US-AK",
    "country": "Alaska"
  },
  {
    "ident": "US-2878",
    "type": "small_airport",
    "name": "High Vista Airport",
    "elev": null,
    "lon": -151.227815,
    "lat": 60.773212,
    "isoregion": "US-AK",
    "country": "Alaska"
  },
  {
    "ident": "47AK",
    "type": "small_airport",
    "name": "Highland Airport",
    "elev": 650,
    "lon": -149.5330047607422,
    "lat": 61.29249954223633,
    "isoregion": "US-AK",
    "country": "Alaska"
  },
  {
    "ident": "AK24",
    "type": "small_airport",
    "name": "Hilltop Airport",
    "elev": 420,
    "lon": -149.4389954,
    "lat": 61.41820145,
    "isoregion": "US-AK",
    "country": "Alaska"
  },
  {
    "ident": "2AK6",
    "type": "small_airport",
    "name": "Hog River Airport",
    "elev": 534,
    "lon": -155.6690063,
    "lat": 66.2161026,
    "isoregion": "US-AK",
    "country": "Alaska"
  },
  {
    "ident": "HYL",
    "type": "seaplane_base",
    "name": "Hollis Clark Bay Seaplane Base",
    "elev": 0,
    "lon": -132.645996094,
    "lat": 55.4816017151,
    "isoregion": "US-AK",
    "country": "Alaska"
  },
  {
    "ident": "PAHC",
    "type": "medium_airport",
    "name": "Holy Cross Airport",
    "elev": 70,
    "lon": -159.77499389648438,
    "lat": 62.18830108642578,
    "isoregion": "US-AK",
    "country": "Alaska"
  },
  {
    "ident": "PAHO",
    "type": "medium_airport",
    "name": "Homer Airport",
    "elev": 84,
    "lon": -151.4770050048828,
    "lat": 59.645599365234375,
    "isoregion": "US-AK",
    "country": "Alaska"
  },
  {
    "ident": "5BL",
    "type": "seaplane_base",
    "name": "Homer-Beluga Lake Seaplane Base",
    "elev": 25,
    "lon": -151.5019989013672,
    "lat": 59.64469909667969,
    "isoregion": "US-AK",
    "country": "Alaska"
  },
  {
    "ident": "25AK",
    "type": "small_airport",
    "name": "Honeybee Lake Aero Park Airport",
    "elev": 200,
    "lon": -150.066005,
    "lat": 61.712699,
    "isoregion": "US-AK",
    "country": "Alaska"
  },
  {
    "ident": "PAOH",
    "type": "small_airport",
    "name": "Hoonah Airport",
    "elev": 19,
    "lon": -135.410111,
    "lat": 58.0961,
    "isoregion": "US-AK",
    "country": "Alaska"
  },
  {
    "ident": "OOH",
    "type": "seaplane_base",
    "name": "Hoonah Seaplane Base",
    "elev": null,
    "lon": -135.45199584960938,
    "lat": 58.11220169067383,
    "isoregion": "US-AK",
    "country": "Alaska"
  },
  {
    "ident": "PAHP",
    "type": "medium_airport",
    "name": "Hooper Bay Airport",
    "elev": 13,
    "lon": -166.1470032,
    "lat": 61.52389908,
    "isoregion": "US-AK",
    "country": "Alaska"
  },
  {
    "ident": "5HO",
    "type": "small_airport",
    "name": "Hope Airport",
    "elev": 200,
    "lon": -149.62399291992188,
    "lat": 60.90409851074219,
    "isoregion": "US-AK",
    "country": "Alaska"
  },
  {
    "ident": "86AK",
    "type": "seaplane_base",
    "name": "Hoppe'S Seaplane Base",
    "elev": 180,
    "lon": -149.94575,
    "lat": 61.551431,
    "isoregion": "US-AK",
    "country": "Alaska"
  },
  {
    "ident": "AA02",
    "type": "seaplane_base",
    "name": "Horseshoe Lake Seaplane Base",
    "elev": 140,
    "lon": -149.924111,
    "lat": 61.571481,
    "isoregion": "US-AK",
    "country": "Alaska"
  },
  {
    "ident": "4Z5",
    "type": "small_airport",
    "name": "Horsfeld Airport",
    "elev": 3300,
    "lon": -141.18099975585938,
    "lat": 62.007198333740234,
    "isoregion": "US-AK",
    "country": "Alaska"
  },
  {
    "ident": "5AK2",
    "type": "small_airport",
    "name": "Howards Airport",
    "elev": 490,
    "lon": -147.34800720214844,
    "lat": 64.73069763183594,
    "isoregion": "US-AK",
    "country": "Alaska"
  },
  {
    "ident": "PAHU",
    "type": "small_airport",
    "name": "Hughes Airport",
    "elev": 299,
    "lon": -154.2630005,
    "lat": 66.04109955,
    "isoregion": "US-AK",
    "country": "Alaska"
  },
  {
    "ident": "10AK",
    "type": "small_airport",
    "name": "Hunt Strip",
    "elev": 200,
    "lon": -149.677598,
    "lat": 61.592052,
    "isoregion": "US-AK",
    "country": "Alaska"
  },
  {
    "ident": "AK66",
    "type": "small_airport",
    "name": "Hunter Creek Airport",
    "elev": 100,
    "lon": -148.8040008544922,
    "lat": 61.46310043334961,
    "isoregion": "US-AK",
    "country": "Alaska"
  },
  {
    "ident": "PAHL",
    "type": "medium_airport",
    "name": "Huslia Airport",
    "elev": 220,
    "lon": -156.3509979,
    "lat": 65.69789886,
    "isoregion": "US-AK",
    "country": "Alaska"
  },
  {
    "ident": "79AK",
    "type": "small_airport",
    "name": "Huttunen Strip",
    "elev": 120,
    "lon": -149.744019,
    "lat": 61.481839,
    "isoregion": "US-AK",
    "country": "Alaska"
  },
  {
    "ident": "PAHY",
    "type": "seaplane_base",
    "name": "Hydaburg Seaplane Base",
    "elev": null,
    "lon": -132.8280029296875,
    "lat": 55.206298828125,
    "isoregion": "US-AK",
    "country": "Alaska"
  },
  {
    "ident": "4Z7",
    "type": "seaplane_base",
    "name": "Hyder Seaplane Base",
    "elev": null,
    "lon": -130.009975,
    "lat": 55.903324,
    "isoregion": "US-AK",
    "country": "Alaska"
  },
  {
    "ident": "19AK",
    "type": "small_airport",
    "name": "Icy Bay Airport",
    "elev": 50,
    "lon": -141.660118,
    "lat": 59.966269,
    "isoregion": "US-AK",
    "country": "Alaska"
  },
  {
    "ident": "2AK8",
    "type": "small_airport",
    "name": "Icy Cape Air Force Station Airport",
    "elev": 48,
    "lon": -161.907151,
    "lat": 70.293545,
    "isoregion": "US-AK",
    "country": "Alaska"
  },
  {
    "ident": "PAIG",
    "type": "small_airport",
    "name": "Igiugig Airport",
    "elev": 90,
    "lon": -155.90199279785156,
    "lat": 59.32400131225586,
    "isoregion": "US-AK",
    "country": "Alaska"
  },
  {
    "ident": "PAIL",
    "type": "medium_airport",
    "name": "Iliamna Airport",
    "elev": 192,
    "lon": -154.9109955,
    "lat": 59.75439835,
    "isoregion": "US-AK",
    "country": "Alaska"
  },
  {
    "ident": "2AK9",
    "type": "small_airport",
    "name": "Independence Creek Airport",
    "elev": 250,
    "lon": -162.46400451660156,
    "lat": 65.67350006103516,
    "isoregion": "US-AK",
    "country": "Alaska"
  },
  {
    "ident": "PAIM",
    "type": "medium_airport",
    "name": "Indian Mountain LRRS Airport",
    "elev": 1273,
    "lon": -153.7039948,
    "lat": 65.99279785,
    "isoregion": "US-AK",
    "country": "Alaska"
  },
  {
    "ident": "4AK1",
    "type": "small_airport",
    "name": "Inigok Airport",
    "elev": 192,
    "lon": -153.0780029296875,
    "lat": 70.00379943847656,
    "isoregion": "US-AK",
    "country": "Alaska"
  },
  {
    "ident": "29A",
    "type": "seaplane_base",
    "name": "Island Lake Seaplane Base",
    "elev": 370,
    "lon": -149.617996216,
    "lat": 61.6288986206,
    "isoregion": "US-AK",
    "country": "Alaska"
  },
  {
    "ident": "2R3",
    "type": "seaplane_base",
    "name": "Island Lake Seaplane Base",
    "elev": 140,
    "lon": -151.31100463867188,
    "lat": 60.70439910888672,
    "isoregion": "US-AK",
    "country": "Alaska"
  },
  {
    "ident": "US-2902",
    "type": "small_airport",
    "name": "Ivanof Bay Airport",
    "elev": null,
    "lon": -159.481631,
    "lat": 55.900861,
    "isoregion": "US-AK",
    "country": "Alaska"
  },
  {
    "ident": "KIB",
    "type": "seaplane_base",
    "name": "Ivanof Bay Seaplane Base",
    "elev": 0,
    "lon": -159.488998413,
    "lat": 55.8974990845,
    "isoregion": "US-AK",
    "country": "Alaska"
  },
  {
    "ident": "7AK4",
    "type": "small_airport",
    "name": "Jack Fish Landing Airport",
    "elev": 150,
    "lon": -149.459102,
    "lat": 61.541579,
    "isoregion": "US-AK",
    "country": "Alaska"
  },
  {
    "ident": "AK43",
    "type": "seaplane_base",
    "name": "Jacobsen Lake Seaplane Base",
    "elev": 350,
    "lon": -149.539001465,
    "lat": 61.5791015625,
    "isoregion": "US-AK",
    "country": "Alaska"
  },
  {
    "ident": "8AK1",
    "type": "small_airport",
    "name": "Jacobus Field",
    "elev": 1670,
    "lon": -145.36300659179688,
    "lat": 62.28030014038086,
    "isoregion": "US-AK",
    "country": "Alaska"
  },
  {
    "ident": "AK0",
    "type": "small_airport",
    "name": "Jakes Bar Airport",
    "elev": 1052,
    "lon": -142.88999938964844,
    "lat": 61.21870040893555,
    "isoregion": "US-AK",
    "country": "Alaska"
  },
  {
    "ident": "4Z9",
    "type": "small_airport",
    "name": "Jakolof Bay Airport",
    "elev": 5,
    "lon": -151.521313,
    "lat": 59.45199,
    "isoregion": "US-AK",
    "country": "Alaska"
  },
  {
    "ident": "AK72",
    "type": "small_airport",
    "name": "Jewell Airport",
    "elev": 113,
    "lon": -150.6009979248047,
    "lat": 61.7047004699707,
    "isoregion": "US-AK",
    "country": "Alaska"
  },
  {
    "ident": "03AK",
    "type": "seaplane_base",
    "name": "Joe Clouds Seaplane Base",
    "elev": 150,
    "lon": -151.13278198242188,
    "lat": 60.72722244262695,
    "isoregion": "US-AK",
    "country": "Alaska"
  },
  {
    "ident": "3AK4",
    "type": "small_airport",
    "name": "Johnson Airport",
    "elev": 102,
    "lon": -151.337657,
    "lat": 60.632522,
    "isoregion": "US-AK",
    "country": "Alaska"
  },
  {
    "ident": "US-4992",
    "type": "small_airport",
    "name": "Johnson Strip Yentna Airport",
    "elev": 187,
    "lon": -151.036966,
    "lat": 61.9454,
    "isoregion": "US-AK",
    "country": "Alaska"
  },
  {
    "ident": "Z52",
    "type": "small_airport",
    "name": "Johnsons Landing Airport",
    "elev": 130,
    "lon": -160.26600646972656,
    "lat": 56.03670120239258,
    "isoregion": "US-AK",
    "country": "Alaska"
  },
  {
    "ident": "2AK5",
    "type": "small_airport",
    "name": "Johnstone Point Airport",
    "elev": 15,
    "lon": -146.583999634,
    "lat": 60.4817008972,
    "isoregion": "US-AK",
    "country": "Alaska"
  },
  {
    "ident": "L95",
    "type": "seaplane_base",
    "name": "Jones Landing Seaplane Base",
    "elev": 180,
    "lon": -149.93899536132812,
    "lat": 61.5547981262207,
    "isoregion": "US-AK",
    "country": "Alaska"
  },
  {
    "ident": "06AK",
    "type": "small_airport",
    "name": "June Lake Airpark",
    "elev": 425,
    "lon": -149.575331,
    "lat": 61.627619,
    "isoregion": "US-AK",
    "country": "Alaska"
  },
  {
    "ident": "66AK",
    "type": "seaplane_base",
    "name": "June Lake Seaplane Base",
    "elev": 406,
    "lon": -149.569167,
    "lat": 61.63,
    "isoregion": "US-AK",
    "country": "Alaska"
  },
  {
    "ident": "5Z1",
    "type": "seaplane_base",
    "name": "Juneau Harbor Seaplane Base",
    "elev": null,
    "lon": -134.4080047607422,
    "lat": 58.29890060424805,
    "isoregion": "US-AK",
    "country": "Alaska"
  },
  {
    "ident": "PAJN",
    "type": "medium_airport",
    "name": "Juneau International Airport",
    "elev": 21,
    "lon": -134.5760040283203,
    "lat": 58.35499954223633,
    "isoregion": "US-AK",
    "country": "Alaska"
  },
  {
    "ident": "PAFE",
    "type": "medium_airport",
    "name": "Kake Airport",
    "elev": 172,
    "lon": -133.910003662,
    "lat": 56.9613990784,
    "isoregion": "US-AK",
    "country": "Alaska"
  },
  {
    "ident": "KAE",
    "type": "seaplane_base",
    "name": "Kake Seaplane Base",
    "elev": null,
    "lon": -133.945999,
    "lat": 56.973,
    "isoregion": "US-AK",
    "country": "Alaska"
  },
  {
    "ident": "9AK2",
    "type": "small_airport",
    "name": "Kako Airport",
    "elev": 300,
    "lon": -161.4380035,
    "lat": 61.89889908,
    "isoregion": "US-AK",
    "country": "Alaska"
  },
  {
    "ident": "1KC",
    "type": "small_airport",
    "name": "Kalakaket Creek AS Airport",
    "elev": 1598,
    "lon": -156.820392609,
    "lat": 64.4166256967,
    "isoregion": "US-AK",
    "country": "Alaska"
  },
  {
    "ident": "0AA7",
    "type": "small_airport",
    "name": "Kalifornsky Meadows Airport",
    "elev": 65,
    "lon": -151.235253,
    "lat": 60.491537,
    "isoregion": "US-AK",
    "country": "Alaska"
  },
  {
    "ident": "43AK",
    "type": "small_airport",
    "name": "Kalmbach Airport",
    "elev": 445,
    "lon": -149.57899475097656,
    "lat": 61.600799560546875,
    "isoregion": "US-AK",
    "country": "Alaska"
  },
  {
    "ident": "54AK",
    "type": "seaplane_base",
    "name": "Kalmbach Lake Seaplane Base",
    "elev": 400,
    "lon": -149.57400512695312,
    "lat": 61.60710144042969,
    "isoregion": "US-AK",
    "country": "Alaska"
  },
  {
    "ident": "PALG",
    "type": "small_airport",
    "name": "Kalskag Airport",
    "elev": 55,
    "lon": -160.34100341796875,
    "lat": 61.53630065917969,
    "isoregion": "US-AK",
    "country": "Alaska"
  },
  {
    "ident": "PAKV",
    "type": "small_airport",
    "name": "Kaltag Airport",
    "elev": 181,
    "lon": -158.7409973,
    "lat": 64.31909943,
    "isoregion": "US-AK",
    "country": "Alaska"
  },
  {
    "ident": "5Z5",
    "type": "small_airport",
    "name": "Kantishna Airport",
    "elev": 1575,
    "lon": -150.99400329589844,
    "lat": 63.54169845581055,
    "isoregion": "US-AK",
    "country": "Alaska"
  },
  {
    "ident": "PAKY",
    "type": "small_airport",
    "name": "Karluk Airport",
    "elev": 137,
    "lon": -154.449996948,
    "lat": 57.5671005249,
    "isoregion": "US-AK",
    "country": "Alaska"
  },
  {
    "ident": "KKL",
    "type": "seaplane_base",
    "name": "Karluk Lake Seaplane Base",
    "elev": 368,
    "lon": -154.027999878,
    "lat": 57.3670005798,
    "isoregion": "US-AK",
    "country": "Alaska"
  },
  {
    "ident": "KXA",
    "type": "seaplane_base",
    "name": "Kasaan Seaplane Base",
    "elev": null,
    "lon": -132.397994995,
    "lat": 55.537399292,
    "isoregion": "US-AK",
    "country": "Alaska"
  },
  {
    "ident": "AK34",
    "type": "seaplane_base",
    "name": "Kashwitna Lake Seaplane Base",
    "elev": 186,
    "lon": -150.080001831,
    "lat": 61.8353004456,
    "isoregion": "US-AK",
    "country": "Alaska"
  },
  {
    "ident": "PFKA",
    "type": "small_airport",
    "name": "Kasigluk Airport",
    "elev": 48,
    "lon": -162.5240021,
    "lat": 60.87440109,
    "isoregion": "US-AK",
    "country": "Alaska"
  },
  {
    "ident": "5KS",
    "type": "small_airport",
    "name": "Kasilof Airport",
    "elev": 125,
    "lon": -151.26300048828125,
    "lat": 60.35329818725586,
    "isoregion": "US-AK",
    "country": "Alaska"
  },
  {
    "ident": "US-2850",
    "type": "small_airport",
    "name": "Katalla Airport",
    "elev": null,
    "lon": -144.519299,
    "lat": 60.194407,
    "isoregion": "US-AK",
    "country": "Alaska"
  },
  {
    "ident": "KRK1",
    "type": "small_airport",
    "name": "Kavik Strip",
    "elev": 668,
    "lon": -146.900227,
    "lat": 69.676796,
    "isoregion": "US-AK",
    "country": "Alaska"
  },
  {
    "ident": "PAEN",
    "type": "medium_airport",
    "name": "Kenai Municipal Airport",
    "elev": 99,
    "lon": -151.2449951171875,
    "lat": 60.57310104370117,
    "isoregion": "US-AK",
    "country": "Alaska"
  },
  {
    "ident": "1AK4",
    "type": "small_airport",
    "name": "Kenai River Airpark",
    "elev": 200,
    "lon": -150.751999,
    "lat": 60.5242,
    "isoregion": "US-AK",
    "country": "Alaska"
  },
  {
    "ident": "5KE",
    "type": "seaplane_base",
    "name": "Ketchikan Harbor Seaplane Base",
    "elev": null,
    "lon": -131.677002,
    "lat": 55.349899,
    "isoregion": "US-AK",
    "country": "Alaska"
  },
  {
    "ident": "PAKT",
    "type": "medium_airport",
    "name": "Ketchikan International Airport",
    "elev": 89,
    "lon": -131.7140045,
    "lat": 55.35559845,
    "isoregion": "US-AK",
    "country": "Alaska"
  },
  {
    "ident": "PAVC",
    "type": "small_airport",
    "name": "King Cove Airport",
    "elev": 155,
    "lon": -162.26600646972656,
    "lat": 55.11629867553711,
    "isoregion": "US-AK",
    "country": "Alaska"
  },
  {
    "ident": "AK59",
    "type": "small_airport",
    "name": "King Ranch Airport",
    "elev": 1350,
    "lon": -148.352981,
    "lat": 61.790695,
    "isoregion": "US-AK",
    "country": "Alaska"
  },
  {
    "ident": "PAKN",
    "type": "medium_airport",
    "name": "King Salmon Airport",
    "elev": 73,
    "lon": -156.651965,
    "lat": 58.677845,
    "isoregion": "US-AK",
    "country": "Alaska"
  },
  {
    "ident": "PAKI",
    "type": "small_airport",
    "name": "Kipnuk Airport",
    "elev": 11,
    "lon": -164.031005859,
    "lat": 59.932998657199995,
    "isoregion": "US-AK",
    "country": "Alaska"
  },
  {
    "ident": "KKB",
    "type": "seaplane_base",
    "name": "Kitoi Bay Seaplane Base",
    "elev": 0,
    "lon": -152.369995117,
    "lat": 58.1908988953,
    "isoregion": "US-AK",
    "country": "Alaska"
  },
  {
    "ident": "PAVL",
    "type": "medium_airport",
    "name": "Kivalina Airport",
    "elev": 13,
    "lon": -164.56300354003906,
    "lat": 67.73619842529297,
    "isoregion": "US-AK",
    "country": "Alaska"
  },
  {
    "ident": "PAKW",
    "type": "medium_airport",
    "name": "Klawock Airport",
    "elev": 80,
    "lon": -133.076004028,
    "lat": 55.579200744599994,
    "isoregion": "US-AK",
    "country": "Alaska"
  },
  {
    "ident": "PAQC",
    "type": "seaplane_base",
    "name": "Klawock Seaplane Base",
    "elev": null,
    "lon": -133.1020050048828,
    "lat": 55.5546989440918,
    "isoregion": "US-AK",
    "country": "Alaska"
  },
  {
    "ident": "PAOB",
    "type": "small_airport",
    "name": "Kobuk Airport",
    "elev": 137,
    "lon": -156.897003174,
    "lat": 66.9123001099,
    "isoregion": "US-AK",
    "country": "Alaska"
  },
  {
    "ident": "9Z3",
    "type": "seaplane_base",
    "name": "Kodiak /Lilly Lake/ Seaplane Base",
    "elev": 130,
    "lon": -152.38299560546875,
    "lat": 57.8026008605957,
    "isoregion": "US-AK",
    "country": "Alaska"
  },
  {
    "ident": "PADQ",
    "type": "medium_airport",
    "name": "Kodiak Airport",
    "elev": 78,
    "lon": -152.4940033,
    "lat": 57.75,
    "isoregion": "US-AK",
    "country": "Alaska"
  },
  {
    "ident": "PAKD",
    "type": "small_airport",
    "name": "Kodiak Municipal Airport",
    "elev": 139,
    "lon": -152.37399292,
    "lat": 57.8059005737,
    "isoregion": "US-AK",
    "country": "Alaska"
  },
  {
    "ident": "US-0200",
    "type": "small_airport",
    "name": "Kogru River Airfield",
    "elev": null,
    "lon": -152.259478,
    "lat": 70.574196,
    "isoregion": "US-AK",
    "country": "Alaska"
  },
  {
    "ident": "PFKK",
    "type": "small_airport",
    "name": "Kokhanok Airport",
    "elev": 115,
    "lon": -154.804000854,
    "lat": 59.433200836199994,
    "isoregion": "US-AK",
    "country": "Alaska"
  },
  {
    "ident": "PAJZ",
    "type": "small_airport",
    "name": "Koliganek Airport",
    "elev": 269,
    "lon": -157.259002686,
    "lat": 59.726600647,
    "isoregion": "US-AK",
    "country": "Alaska"
  },
  {
    "ident": "PADY",
    "type": "small_airport",
    "name": "Kongiganak Airport",
    "elev": 30,
    "lon": -162.880996704,
    "lat": 59.960800170899994,
    "isoregion": "US-AK",
    "country": "Alaska"
  },
  {
    "ident": "PFKO",
    "type": "small_airport",
    "name": "Kotlik Airport",
    "elev": 15,
    "lon": -163.533004761,
    "lat": 63.0306015015,
    "isoregion": "US-AK",
    "country": "Alaska"
  },
  {
    "ident": "PAKK",
    "type": "small_airport",
    "name": "Koyuk Alfred Adams Airport",
    "elev": 154,
    "lon": -161.154006958,
    "lat": 64.9394989014,
    "isoregion": "US-AK",
    "country": "Alaska"
  },
  {
    "ident": "PFKU",
    "type": "small_airport",
    "name": "Koyukuk Airport",
    "elev": 149,
    "lon": -157.727005005,
    "lat": 64.8760986328,
    "isoregion": "US-AK",
    "country": "Alaska"
  },
  {
    "ident": "AK86",
    "type": "small_airport",
    "name": "Kramer Airport",
    "elev": 150,
    "lon": -149.91135,
    "lat": 61.573539,
    "isoregion": "US-AK",
    "country": "Alaska"
  },
  {
    "ident": "39AK",
    "type": "small_airport",
    "name": "Kroenke Strip",
    "elev": 340,
    "lon": -149.235996,
    "lat": 61.586021,
    "isoregion": "US-AK",
    "country": "Alaska"
  },
  {
    "ident": "63AK",
    "type": "small_airport",
    "name": "Kucera Residence Airport",
    "elev": 189,
    "lon": -149.93800354003906,
    "lat": 61.58430099487305,
    "isoregion": "US-AK",
    "country": "Alaska"
  },
  {
    "ident": "91AK",
    "type": "seaplane_base",
    "name": "Kucera Seaplane Base",
    "elev": 175,
    "lon": -149.943333,
    "lat": 61.576389,
    "isoregion": "US-AK",
    "country": "Alaska"
  },
  {
    "ident": "PAKL",
    "type": "small_airport",
    "name": "Kulik Lake Airport",
    "elev": 717,
    "lon": -155.121002197,
    "lat": 58.9821014404,
    "isoregion": "US-AK",
    "country": "Alaska"
  },
  {
    "ident": "PFKW",
    "type": "small_airport",
    "name": "Kwethluk Airport",
    "elev": 25,
    "lon": -161.444000244,
    "lat": 60.790298461899994,
    "isoregion": "US-AK",
    "country": "Alaska"
  },
  {
    "ident": "PAGG",
    "type": "small_airport",
    "name": "Kwigillingok Airport",
    "elev": 18,
    "lon": -163.169005,
    "lat": 59.876499,
    "isoregion": "US-AK",
    "country": "Alaska"
  },
  {
    "ident": "KWK",
    "type": "seaplane_base",
    "name": "Kwigillingok Seaplane Base",
    "elev": null,
    "lon": -163.139999,
    "lat": 59.8367,
    "isoregion": "US-AK",
    "country": "Alaska"
  },
  {
    "ident": "PAFB",
    "type": "medium_airport",
    "name": "Ladd AAF Airfield",
    "elev": 454,
    "lon": -147.6139984,
    "lat": 64.83750153,
    "isoregion": "US-AK",
    "country": "Alaska"
  },
  {
    "ident": "5Z9",
    "type": "seaplane_base",
    "name": "Lake Brooks Seaplane Base",
    "elev": 36,
    "lon": -155.77699279785,
    "lat": 58.554798126221,
    "isoregion": "US-AK",
    "country": "Alaska"
  },
  {
    "ident": "PALH",
    "type": "seaplane_base",
    "name": "Lake Hood Airport",
    "elev": 71,
    "lon": -149.972003,
    "lat": 61.18,
    "isoregion": "US-AK",
    "country": "Alaska"
  },
  {
    "ident": "Z41",
    "type": "small_airport",
    "name": "Lake Hood Airport",
    "elev": 73,
    "lon": -149.965442,
    "lat": 61.186946,
    "isoregion": "US-AK",
    "country": "Alaska"
  },
  {
    "ident": "Z55",
    "type": "small_airport",
    "name": "Lake Louise Airport",
    "elev": 2450,
    "lon": -146.57899475097656,
    "lat": 62.293701171875,
    "isoregion": "US-AK",
    "country": "Alaska"
  },
  {
    "ident": "13S",
    "type": "seaplane_base",
    "name": "Lake Louise Seaplane Base",
    "elev": 2362,
    "lon": -146.5189971923828,
    "lat": 62.282901763916016,
    "isoregion": "US-AK",
    "country": "Alaska"
  },
  {
    "ident": "4A3",
    "type": "seaplane_base",
    "name": "Lake Lucille Seaplane Base",
    "elev": 300,
    "lon": -149.47300720214844,
    "lat": 61.57460021972656,
    "isoregion": "US-AK",
    "country": "Alaska"
  },
  {
    "ident": "78AA",
    "type": "small_airport",
    "name": "Lakewood Airport",
    "elev": 540,
    "lon": -147.2466917,
    "lat": 64.7717611,
    "isoregion": "US-AK",
    "country": "Alaska"
  },
  {
    "ident": "53AK",
    "type": "small_airport",
    "name": "Lakewood Airstrip",
    "elev": 110,
    "lon": -150.856597,
    "lat": 60.533749,
    "isoregion": "US-AK",
    "country": "Alaska"
  },
  {
    "ident": "AK22",
    "type": "small_airport",
    "name": "Lakloey Air Park",
    "elev": 475,
    "lon": -147.52200317382812,
    "lat": 64.82170104980469,
    "isoregion": "US-AK",
    "country": "Alaska"
  },
  {
    "ident": "PALB",
    "type": "small_airport",
    "name": "Larsen Bay Airport",
    "elev": 87,
    "lon": -153.977993,
    "lat": 57.535099,
    "isoregion": "US-AK",
    "country": "Alaska"
  },
  {
    "ident": "3AK7",
    "type": "small_airport",
    "name": "Laub Airport",
    "elev": 100,
    "lon": -150.33900451660156,
    "lat": 61.76559829711914,
    "isoregion": "US-AK",
    "country": "Alaska"
  },
  {
    "ident": "9Z9",
    "type": "small_airport",
    "name": "Lawing Airport",
    "elev": 475,
    "lon": -149.3699951171875,
    "lat": 60.41109848022461,
    "isoregion": "US-AK",
    "country": "Alaska"
  },
  {
    "ident": "55AK",
    "type": "small_airport",
    "name": "Lawrence Airstrip",
    "elev": 200,
    "lon": -149.69900512695312,
    "lat": 61.49580001831055,
    "isoregion": "US-AK",
    "country": "Alaska"
  },
  {
    "ident": "9AK6",
    "type": "small_airport",
    "name": "Leisurewood Airstrip Owners Assoc Airport",
    "elev": 366,
    "lon": -149.6479949951172,
    "lat": 61.62409973144531,
    "isoregion": "US-AK",
    "country": "Alaska"
  },
  {
    "ident": "9Z8",
    "type": "small_airport",
    "name": "Levelock Airport",
    "elev": 39,
    "lon": -156.860906,
    "lat": 59.12606,
    "isoregion": "US-AK",
    "country": "Alaska"
  },
  {
    "ident": "US-2896",
    "type": "small_airport",
    "name": "Lewis River Airport",
    "elev": null,
    "lon": -150.744867,
    "lat": 61.251909,
    "isoregion": "US-AK",
    "country": "Alaska"
  },
  {
    "ident": "2AK",
    "type": "small_airport",
    "name": "Lime Village Airport",
    "elev": 552,
    "lon": -155.440002441,
    "lat": 61.3591003418,
    "isoregion": "US-AK",
    "country": "Alaska"
  },
  {
    "ident": "89AK",
    "type": "small_airport",
    "name": "Lincoln Village Airpark",
    "elev": 250,
    "lon": -149.7050018310547,
    "lat": 61.55939865112305,
    "isoregion": "US-AK",
    "country": "Alaska"
  },
  {
    "ident": "8AK6",
    "type": "small_airport",
    "name": "Little Susitna Airport",
    "elev": 70,
    "lon": -150.26199340820312,
    "lat": 61.37189865112305,
    "isoregion": "US-AK",
    "country": "Alaska"
  },
  {
    "ident": "4AK",
    "type": "small_airport",
    "name": "Livengood Camp Airport",
    "elev": 425,
    "lon": -148.6534,
    "lat": 65.467,
    "isoregion": "US-AK",
    "country": "Alaska"
  },
  {
    "ident": "63A",
    "type": "seaplane_base",
    "name": "Lloyd R. Roundtree Seaplane Facility Seaplane Base",
    "elev": null,
    "lon": -132.9600067138672,
    "lat": 56.81129837036133,
    "isoregion": "US-AK",
    "country": "Alaska"
  },
  {
    "ident": "4AK3",
    "type": "small_airport",
    "name": "Long Lake Airport",
    "elev": 1500,
    "lon": -143.3260040283203,
    "lat": 61.377899169921875,
    "isoregion": "US-AK",
    "country": "Alaska"
  },
  {
    "ident": "AK69",
    "type": "small_airport",
    "name": "Long Lake Airport",
    "elev": 200,
    "lon": -150.09800720214844,
    "lat": 61.72930145263672,
    "isoregion": "US-AK",
    "country": "Alaska"
  },
  {
    "ident": "AK57",
    "type": "seaplane_base",
    "name": "Long Lake Seaplane Base",
    "elev": 180,
    "lon": -150.091003418,
    "lat": 61.7257003784,
    "isoregion": "US-AK",
    "country": "Alaska"
  },
  {
    "ident": "OL99",
    "type": "small_airport",
    "name": "Lookout Airport",
    "elev": 1310,
    "lon": -151.4961,
    "lat": 59.709391,
    "isoregion": "US-AK",
    "country": "Alaska"
  },
  {
    "ident": "13Z",
    "type": "seaplane_base",
    "name": "Loring Seaplane Base",
    "elev": 0,
    "lon": -131.636993408,
    "lat": 55.6012992859,
    "isoregion": "US-AK",
    "country": "Alaska"
  },
  {
    "ident": "LSR",
    "type": "small_airport",
    "name": "Lost River 1 Airport",
    "elev": 80,
    "lon": -167.16299438476562,
    "lat": 65.39620208740234,
    "isoregion": "US-AK",
    "country": "Alaska"
  },
  {
    "ident": "00AK",
    "type": "small_airport",
    "name": "Lowell Field",
    "elev": 450,
    "lon": -151.692524,
    "lat": 59.947733,
    "isoregion": "US-AK",
    "country": "Alaska"
  },
  {
    "ident": "2AK0",
    "type": "small_airport",
    "name": "MacKenzie Country Airpark",
    "elev": 120,
    "lon": -149.975006,
    "lat": 61.255901,
    "isoregion": "US-AK",
    "country": "Alaska"
  },
  {
    "ident": "L85",
    "type": "seaplane_base",
    "name": "Mackeys Lakes Seaplane Base",
    "elev": 175,
    "lon": -150.996002197,
    "lat": 60.5335998535,
    "isoregion": "US-AK",
    "country": "Alaska"
  },
  {
    "ident": "4AK5",
    "type": "small_airport",
    "name": "Mankomen Lake Airport",
    "elev": 3050,
    "lon": -144.47999572753906,
    "lat": 62.989898681640625,
    "isoregion": "US-AK",
    "country": "Alaska"
  },
  {
    "ident": "PAML",
    "type": "small_airport",
    "name": "Manley Hot Springs Airport",
    "elev": 270,
    "lon": -150.643997192,
    "lat": 64.99759674069999,
    "isoregion": "US-AK",
    "country": "Alaska"
  },
  {
    "ident": "PAMB",
    "type": "small_airport",
    "name": "Manokotak Airport",
    "elev": 100,
    "lon": -159.050003052,
    "lat": 58.990200042699996,
    "isoregion": "US-AK",
    "country": "Alaska"
  },
  {
    "ident": "US-2880",
    "type": "small_airport",
    "name": "Maranatha Airport",
    "elev": null,
    "lon": -151.25215,
    "lat": 60.69973,
    "isoregion": "US-AK",
    "country": "Alaska"
  },
  {
    "ident": "85AK",
    "type": "seaplane_base",
    "name": "Marion Seaplane Base",
    "elev": 150,
    "lon": -149.908611,
    "lat": 61.509167,
    "isoregion": "US-AK",
    "country": "Alaska"
  },
  {
    "ident": "PADM",
    "type": "medium_airport",
    "name": "Marshall Don Hunter Sr Airport",
    "elev": 103,
    "lon": -162.026000977,
    "lat": 61.8642997742,
    "isoregion": "US-AK",
    "country": "Alaska"
  },
  {
    "ident": "AK92",
    "type": "small_airport",
    "name": "Martin Airport",
    "elev": 820,
    "lon": -149.029007,
    "lat": 61.63800049,
    "isoregion": "US-AK",
    "country": "Alaska"
  },
  {
    "ident": "AK53",
    "type": "small_airport",
    "name": "Maud Road Strip Airport",
    "elev": 222,
    "lon": -148.996994,
    "lat": 61.582298,
    "isoregion": "US-AK",
    "country": "Alaska"
  },
  {
    "ident": "MYK",
    "type": "small_airport",
    "name": "May Creek Airport",
    "elev": 1650,
    "lon": -142.68699646,
    "lat": 61.3357009888,
    "isoregion": "US-AK",
    "country": "Alaska"
  },
  {
    "ident": "PAMX",
    "type": "small_airport",
    "name": "Mc Carthy Airport",
    "elev": 1531,
    "lon": -142.904006958,
    "lat": 61.4370994568,
    "isoregion": "US-AK",
    "country": "Alaska"
  },
  {
    "ident": "16Z",
    "type": "seaplane_base",
    "name": "Mc Grath Seaplane Base",
    "elev": 325,
    "lon": -155.593002319,
    "lat": 62.9580001831,
    "isoregion": "US-AK",
    "country": "Alaska"
  },
  {
    "ident": "81AK",
    "type": "small_airport",
    "name": "Mc Kinley Country Airport",
    "elev": 600,
    "lon": -150.235992432,
    "lat": 62.5676994324,
    "isoregion": "US-AK",
    "country": "Alaska"
  },
  {
    "ident": "65AK",
    "type": "small_airport",
    "name": "McDonald Ridge Airport",
    "elev": 285,
    "lon": -149.367349,
    "lat": 61.560379,
    "isoregion": "US-AK",
    "country": "Alaska"
  },
  {
    "ident": "AK73",
    "type": "small_airport",
    "name": "McGahan Industrial Airpark",
    "elev": 150,
    "lon": -151.306458,
    "lat": 60.723125,
    "isoregion": "US-AK",
    "country": "Alaska"
  },
  {
    "ident": "PAMC",
    "type": "medium_airport",
    "name": "McGrath Airport",
    "elev": 341,
    "lon": -155.6060028,
    "lat": 62.95289993,
    "isoregion": "US-AK",
    "country": "Alaska"
  },
  {
    "ident": "PAIN",
    "type": "small_airport",
    "name": "McKinley National Park Airport",
    "elev": 1720,
    "lon": -148.910995483,
    "lat": 63.7326011658,
    "isoregion": "US-AK",
    "country": "Alaska"
  },
  {
    "ident": "US-2881",
    "type": "small_airport",
    "name": "Meimi Airport",
    "elev": 32,
    "lon": -151.12614,
    "lat": 60.72358,
    "isoregion": "US-AK",
    "country": "Alaska"
  },
  {
    "ident": "PAMY",
    "type": "medium_airport",
    "name": "Mekoryuk Airport",
    "elev": 48,
    "lon": -166.27099609375,
    "lat": 60.37139892578125,
    "isoregion": "US-AK",
    "country": "Alaska"
  },
  {
    "ident": "38AK",
    "type": "small_airport",
    "name": "Mels Airport",
    "elev": 340,
    "lon": -149.66799926757812,
    "lat": 61.5625,
    "isoregion": "US-AK",
    "country": "Alaska"
  },
  {
    "ident": "5AK8",
    "type": "small_airport",
    "name": "Memory Lake Airport",
    "elev": 420,
    "lon": -149.4320068359375,
    "lat": 61.63140106201172,
    "isoregion": "US-AK",
    "country": "Alaska"
  },
  {
    "ident": "69AK",
    "type": "seaplane_base",
    "name": "Memory Lake Seaplane Base",
    "elev": 463,
    "lon": -149.42361450195312,
    "lat": 61.62888717651367,
    "isoregion": "US-AK",
    "country": "Alaska"
  },
  {
    "ident": "PACV",
    "type": "medium_airport",
    "name": "Merle K (Mudhole) Smith Airport",
    "elev": 54,
    "lon": -145.477997,
    "lat": 60.491798,
    "isoregion": "US-AK",
    "country": "Alaska"
  },
  {
    "ident": "PAMR",
    "type": "medium_airport",
    "name": "Merrill Field",
    "elev": 137,
    "lon": -149.843994140625,
    "lat": 61.2135009765625,
    "isoregion": "US-AK",
    "country": "Alaska"
  },
  {
    "ident": "PFME",
    "type": "small_airport",
    "name": "Mertarvik Quarry Road Landing Strip",
    "elev": 70,
    "lon": -164.519013,
    "lat": 60.818385,
    "isoregion": "US-AK",
    "country": "Alaska"
  },
  {
    "ident": "PAMM",
    "type": "seaplane_base",
    "name": "Metlakatla Seaplane Base",
    "elev": null,
    "lon": -131.578003,
    "lat": 55.131001,
    "isoregion": "US-AK",
    "country": "Alaska"
  },
  {
    "ident": "MTF",
    "type": "small_airport",
    "name": "Metro Field",
    "elev": 432,
    "lon": -147.761993408,
    "lat": 64.80680084229999,
    "isoregion": "US-AK",
    "country": "Alaska"
  },
  {
    "ident": "84K",
    "type": "seaplane_base",
    "name": "Meyers Chuck Seaplane Base",
    "elev": 0,
    "lon": -132.255004883,
    "lat": 55.7396011353,
    "isoregion": "US-AK",
    "country": "Alaska"
  },
  {
    "ident": "PAMD",
    "type": "small_airport",
    "name": "Middleton Island Airport",
    "elev": 100,
    "lon": -146.307006836,
    "lat": 59.4499015808,
    "isoregion": "US-AK",
    "country": "Alaska"
  },
  {
    "ident": "PAMH",
    "type": "small_airport",
    "name": "Minchumina Airport",
    "elev": 678,
    "lon": -152.302002,
    "lat": 63.886002,
    "isoregion": "US-AK",
    "country": "Alaska"
  },
  {
    "ident": "51Z",
    "type": "small_airport",
    "name": "Minto Al Wright Airport",
    "elev": 460,
    "lon": -149.369995,
    "lat": 65.1437,
    "isoregion": "US-AK",
    "country": "Alaska"
  },
  {
    "ident": "MFN",
    "type": "seaplane_base",
    "name": "Minuteman Lake Seaplane Base",
    "elev": 295,
    "lon": -150.0469970703125,
    "lat": 61.72129821777344,
    "isoregion": "US-AK",
    "country": "Alaska"
  },
  {
    "ident": "AK68",
    "type": "small_airport",
    "name": "Minuteman Strip",
    "elev": 290,
    "lon": -150.0540008544922,
    "lat": 61.720298767089844,
    "isoregion": "US-AK",
    "country": "Alaska"
  },
  {
    "ident": "AA11",
    "type": "seaplane_base",
    "name": "Misty Lake Seaplane Base",
    "elev": 350,
    "lon": -149.676131,
    "lat": 61.550739,
    "isoregion": "US-AK",
    "country": "Alaska"
  },